Name 1,Country,Street,Telephone ,Name 1,Tax Number 1,National ID,Distribution Channel,Division,Sales Office,Sales District,Route Description,Total Active Cust.,latitude,longitude,"Region (State, Province, County)","Please analyze the data and state if there is any data issue or required cleansing ? If yes please state them below in points and what is the next steps which should to be taken accordignly.
Mandatory to state the technique which used for analysing the data ."
Taawon Café,EG,البنزينه القديمه,01220687598,سلسله التعاون,321-874-879,,,,,,TELES-Amria,1,30.93245088,29.69671438,Greater Cairo,
Hassan Mohamed,EG,الشهيد عبدالرحمن,0126899458,حسن عبد الحميد,,,,,,,TELES-Hurghada,1,27.18372555,33.82100997,Greater Cairo,
Farag Kiosk,EG,مساكن مصنع السكر,01234567899,كشك عبد الزاهر,,,Scrap,Scrap,,West Cairo,TELES-Hurghada,1,27.180494,33.807566,Giza,
Shabaan Mohamed,EG,الموقف الجديد,01220687598,مقهي الموقف,,2547897125797820,,,,,TELES-Heliopolis,1,30.1128268,31.3997904,Greater Cairo,
Café,EG,ش الكوبري,01220687598,مقهي,,,,,,,TELES-Sohag,1,26.3390716,31.7377196,,
MAXIME,EG,صلاح الدين - خالد بن الوليد,48795478910,MAXIME,,,,,,,TELES-Assiout,1,27.062403,31.027911,,
Mohamed Ahmed Mohamed,EG,السوق,01265478997,ام كلثوم,789654789,,,,,,DSP-منافذ خاصة وسط,1,30.044531,31.248146,Greater Cairo,
COSTA,EG,ش الدولي,01123548895,COSTA,,,,,,,DSP-منافذ خاصة وسط,1,30.044531,31.248146,Greater Cairo,
Bashayeer Café,EG,البحيرات,01026478954,بشاير,,87897125797820,Direct Sales,Coca-Cola,Qualuob,Qualuob,الطور_SOut,1,27.86046300000000,34.30193100000000,Cairo,
Watania,EG,عبدالحميد طه,01568797795,الوطنيه,,,Indirect Sales,Coca-Cola,Qualuob,Qualuob,DSP-منافذ خاصة وسط 2,1,30.035798,31.234038,Cairo,
Hamada Ahmed,EG,المنشيه,01234587924,حماده احمد,,,Indirect Sales,Coca-Cola,Qualuob,Qualuob,DSP-خط الساحل,1,29.98493279222420,32.51067132850530,Cairo,
Dardasha Café,EG,المنشيه,00489978996,دردشه كافيه,877912335,,Indirect Sales,Coca-Cola,Qualuob,Qualuob,الطور_SOut,1,28.216808,33.629292,Cairo,
NILE VALLEY HOTEL,EG,البحيرات,01002687999,NILE VALLEY HOTEL,,,Indirect Sales,Coca-Cola,Qualuob,Qualuob,الطور_SOut,1,28.23302,33.62329,Cairo,
ابو علي و حمزه,EG,رمسيس,01235479578,ابو علي و حمزه,,,Direct Sales,Coca-Cola,Qualuob,Qualuob,الطور_SOut,1,27.901967,34.279049,Cairo,
الحاج شعبان,EG,سعد زغلول,01024879578,الحاج شعبان,,47897125797820,Direct Sales,Coca-Cola,Qualuob,Qualuob,الطور_SOut,1,27.862833,34.291412,Cairo,
جراند كافيه,EG,الممشي,012577878794,جراند كافيه,,,Direct Sales,Coca-Cola,Qualuob,Qualuob,,1,0,0,Cairo,
PARIS CAFIE,EG,الشيراتون,0124587\8978,PARIS CAFIE,,,Direct Sales,Coca-Cola,Qualuob,Qualuob,,1,"11,11","11,11",Cairo,
وايفز,EG,ش الممشي,12564789478,وايفز,987456210,187897125797820,Direct Sales,Coca-Cola,Qualuob,Qualuob,,1,,,Cairo,
كوفي شوب,EG,داخل المول,,كوفي شوب,,,Direct Sales,Coca-Cola,Qualuob,Qualuob,,1,,,Cairo,
راندفو,EG,الشيراتون,,راندفو,,,Direct Sales,Coca-Cola,Qualuob,Qualuob,E-COMMERCE,1,30.171250000000001,31.292694000000001,Cairo,
الدكتور,EG,الكورنيش,,الدكتور,987456321,,Direct Sales,Coca-Cola,Qualuob,Qualuob,E-COMMERCE,1,30.218444000000002,31.326582999999999,Cairo,
استراحه,EG,الجيل الصاعد,,استراحه,,47897125797820,Direct Sales,Coca-Cola,Qualuob,Qualuob,E-COMMERCE,1,30.089193999999999,31.057389000000001,Cairo,
DAPORT,EG,ابو تيج مارينا,,DAPORT,,,Direct Sales,Coca-Cola,Qualuob,Qualuob,E-COMMERCE,1,30.090388999999998,31.013444,Cairo,
فاتن حسين,EG,امام مستشفي الصدريه,,فاتن حسين,,,Direct Sales,Coca-Cola,Qualuob,Qualuob,E-COMMERCE,1,30.159693999999998,31.373750000000001,Cairo,
شعبان قرني,EG,موقف الاتوبيس,,شعبان قرني,,,Direct Sales,Coca-Cola,Qualuob,Qualuob,E-COMMERCE,1,30.212167000000001,31.319389000000001,Cairo,
الراعي للمواد الغذائيه,EG,23 يوليو,,الراعي للمواد الغذائيه,,,Direct Sales,Coca-Cola,Qualuob,Qualuob,E-COMMERCE,1,29.962145400000001,31.2746204,Cairo,
عياد امين,EG,الصالح ايوب,,عياد امين,,,Direct Sales,Coca-Cola,Qualuob,Qualuob,E-COMMERCE,1,29.960196,31.155225999999999,Cairo,
كرومبو,EG,سليمان متولي,,كرومبو,987456321,,Key Accounts,Coca-Cola,Qualuob,Qualuob,E-COMMERCE,1,30.227250999999999,31.719190000000001,Cairo,
كذا ميزه,EG,الجيار,,كذا ميزه,,,Direct Sales,Coca-Cola,Qualuob,Qualuob,E-COMMERCE,1,29.988572999999999,30.935749000000001,Cairo,
ليالي,EG,عبد السلام معوض,,ليالي,,,Direct Sales,Coca-Cola,Qualuob,Qualuob,E-COMMERCE,1,29.967237000000001,31.496227000000001,Cairo,
كذا ميزا,EG,ش الامام احمد,,كذا ميزا,,,Direct Sales,Coca-Cola,Qualuob,Qualuob,E-COMMERCE,1,30.068417,31.21575,Cairo,
مطعم,EG,عبد السلام عارف,,مطعم,,,Key Accounts,Coca-Cola,Qualuob,Qualuob,E-COMMERCE,1,30.072831000000001,31.04693,Cairo,
بابا عبده,EG,عبد السلام عارف,,بابا عبده,,,Direct Sales,Coca-Cola,Qualuob,Qualuob,E-COMMERCE,1,30.039667000000001,30.970278,Cairo,
ماركت بتول,EG,المهندس عبد الحميد عبد الحفيظ,,ماركت بتول,,,Direct Sales,Coca-Cola,Qualuob,Qualuob,E-COMMERCE,1,29.957000000000001,31.494333000000001,Cairo,
مؤمن,EG,طريق المستشفي,,مؤمن,,,Direct Sales,Coca-Cola,Qualuob,Qualuob,E-COMMERCE,1,29.996888999999999,31.278805999999999,Cairo,
الارسنال,EG,مدرسه الفنيه,,الارسنال,,,Direct Sales,Coca-Cola,Qualuob,Qualuob,E-COMMERCE,1,30.055861,31.210750000000001,Cairo,
سوبر ماركت الحوت,EG,جمال عبد الناصر,,سوبر ماركت الحوت,,,Direct Sales,Coca-Cola,Qualuob,Qualuob,E-COMMERCE,1,30.009944000000001,31.319555999999999,Cairo,
القاضي,EG,الجلاء,,القاضي,,2547897125797820,Direct Sales,Coca-Cola,Qualuob,Qualuob,E-COMMERCE,1,30.038305999999999,31.200222,Cairo,
فنزويلا,EG,محمد اليمني,,فنزويلا,,,Direct Sales,Coca-Cola,Qualuob,Qualuob,E-COMMERCE,1,30.056806000000002,31.193667000000001,Cairo,
ليالي الحلميه,EG,محمد اليماني,,ليالي الحلميه,,,Direct Sales,Coca-Cola,Qualuob,Qualuob,E-COMMERCE,1,29.978110999999998,31.313777999999999,Cairo,
فارس,EG,بجوار مسجد الرحمه,,فارس,,,Direct Sales,Coca-Cola,Qualuob,Qualuob,E-COMMERCE,1,30.033722000000001,31.239417,Cairo,
المصريين,EG,الكويت,,المصريين,,,Direct Sales,Coca-Cola,Qualuob,Qualuob,E-COMMERCE,1,29.995360999999999,31.178083000000001,Cairo,
VANILLA,EG,خليج نعمه,,VANILLA,,87897125797820,Direct Sales,Coca-Cola,Qualuob,Qualuob,E-COMMERCE,1,29.9725,30.938389000000001,Cairo,
كنابش مون لايت,EG,الممشي - خليج نعمه,,كنابش مون لايت,,,Direct Sales,Coca-Cola,Qualuob,Qualuob,E-COMMERCE,1,30.070527999999999,31.5185,Cairo,
فريندز,EG,دلتا شرم,,فريندز,,,Direct Sales,Coca-Cola,Qualuob,Qualuob,E-COMMERCE,1,29.97870866647808,31.283042897379925,Cairo,
BEDOUIN,EG,المشايه,,BEDOUIN,,,Direct Sales,Coca-Cola,Qualuob,Qualuob,CR-SN- سوهاج,1,26.6673440,31.6637020,Cairo,
المصرين,EG,السوق القديم,,المصرين,,,Direct Sales,Coca-Cola,Qualuob,Qualuob,CR-SN- اسيوط,1,27.270530000000001,31.168420000000001,Cairo,
فيش فيش,EG,البنوك,,فيش فيش,,,Direct Sales,Coca-Cola,Qualuob,Qualuob,CR-SN- الفيوم,1,29.30433,30.827349999999999,Cairo,
DOWN TWONBAR,EG,المشايه,,DOWN TWONBAR,,47897125797820,Direct Sales,Coca-Cola,Qualuob,Qualuob,CR-SN- اسيوط,1,25.544302999999999,28.993441000000001,Cairo,
بابمو,EG,الفنار,,بابمو,,,Direct Sales,Coca-Cola,Qualuob,Qualuob,CR-SN- بني سويف,1,29.084710000000001,31.9636,Cairo,
ابو عبدالله,EG,احمد فتحي,01283273563,ابو عبدالله,,,Direct Sales,Coca-Cola,Qualuob,Qualuob,CR-SN- المنيا,1,28.417760000000001,30.783169999999998,Cairo,
الدوكه,EG,مطعم الدوكه,,الدوكه,,187897125797820,Direct Sales,Coca-Cola,Qualuob,Qualuob,CR-SN- دمياط,1,30.876930000000002,31.45656,Cairo,
عبد الباسط سعد الدين,EG,الشواربي الجديد,,عبد الباسط سعد الدين,,,Key Accounts,Coca-Cola,Qualuob,Qualuob,CR-SN- الزقازيق 2,1,30.304959,30.415161000000001,Cairo,
NUBIAN JABANA,EG,امام المدرسه احمد صابر,01282880498,NUBIAN JABANA,,,Direct Sales,Coca-Cola,Aswan,Qualuob,CR-SN- الزقازيق,1,30.457350999999999,31.622406999999999,Cairo,
التحرير,EG,كورنيش النيل,,التحرير,,,Direct Sales,Coca-Cola,Aswan,Qualuob,CR-SN- الزقازيق,1,30.545047,31.368666000000001,Cairo,
التوبه النوبه,EG,سعد زغلول,,التوبه النوبه,,47897125797820,Direct Sales,Coca-Cola,Aswan,Qualuob,CR-SN- الزقازيق 2,1,30.598949999999999,31.504286,Cairo,
احمد حازم,EG,كسر الحجر,,احمد حازم,,,Direct Sales,Coca-Cola,Aswan,Qualuob,CR-SN- الزقازيق,1,30.603793,31.387615,Cairo,
بيتي,EG,الكورنيش - ميدان المحطه,,بيتي,,,Direct Sales,Coca-Cola,Aswan,Qualuob,CR-SN- الزقازيق,1,30.715392999999999,31.507612999999999,Cairo,
كباب الباشا,EG,الكورنيش - ميدان المحطه,,كباب الباشا,,,Direct Sales,Coca-Cola,Aswan,Qualuob,CR-SN- الزقازيق 2,1,30.569476999999999,31.691700000000001,Cairo,
بقاله محمد صالحالبركه,EG,من احمد اسماعيل متفرع من ش العروبه,,بقاله محمد صالحالبركه,,,Direct Sales,Coca-Cola,Aswan,Qualuob,CR-SN- الزقازيق,1,30.551174,31.424368000000001,Cairo,
مقله هارون,EG,هارون الرشيد,,مقله هارون,,,Direct Sales,Coca-Cola,Aswan,Qualuob,CR-SN- الزقازيق,1,30.657813000000001,31.472186000000001,Cairo,
اورانياORANA,EG,صقر قريش,,اورانياORANA,,,Key Accounts,Coca-Cola,Aswan,Qualuob,CR-SN- الزقازيق,1,30.828351999999999,31.598780000000001,Cairo,
PERK N PUFF CAFE LOUNGE,EG,الحريه,,PERK N PUFF CAFE LOUNGE,,,Direct Sales,Coca-Cola,Aswan,Qualuob,CR-SN- الزقازيق,1,30.619494,31.467538999999999,Cairo,
ابو احمد السوري,EG,موقف العاشر الجديد,,ابو احمد السوري,,,Direct Sales,Coca-Cola,Aswan,Qualuob,CR-SN- الزقازيق,1,30.720427000000001,31.565534,Cairo,
الحمد,EG,ش الصفا من طه حسين,,الحمد,,,Direct Sales,Coca-Cola,Aswan,Qualuob,CR-SN- المنصورة,1,30.81851,31.462630000000001,Cairo,
كوكو اند جوجو,EG,عثمان بن عفان,,كوكو اند جوجو,,,Direct Sales,Coca-Cola,Aswan,Qualuob,CR-SN- المنصورة,1,31.170159999999999,31.325220000000002,Cairo,
هشام جلال نادي,EG,عمارات التوفيق,,هشام جلال نادي,,,Direct Sales,Coca-Cola,Aswan,Qualuob,,1,1,1,Cairo,
بابريكاPAPRIKA,EG,ش الرشيدي,,بابريكاPAPRIKA,,,Direct Sales,Coca-Cola,Aswan,Qualuob,CR-SN- المنصورة,1,31.13043,31.23115,Cairo,
عادلاحمد عبد الرحيم,EG,بني عقيل من طومان باي,,عادلاحمد عبد الرحيم,,,Direct Sales,Coca-Cola,Aswan,Qualuob,SN-بلقاس و نبروة,1,31.13329,31.36621,Cairo,
جيفارا,EG,ش 15,,جيفارا,,,Direct Sales,Coca-Cola,Aswan,Qualuob,CR-SN- المنصورة,1,31.000209999999999,31.45233,Cairo,
اسماعيل باشا,EG,شارع شهاب الدين خفاجه,,اسماعيل باشا,,,Direct Sales,Coca-Cola,Aswan,Qualuob,CR-SN- مسطرد,1,30.608519000000001,32.271467000000001,Cairo,
ابن حميدو,EG,مساكن مدارس الجولف من حسن افلاطون,,ابن حميدو,,,Direct Sales,Coca-Cola,Aswan,Qualuob,CR-SN- منيل شيحة,1,29.982144000000002,31.237904,Cairo,
هند,EG,الثوره,,هند,,,Direct Sales,Coca-Cola,Aswan,Qualuob,CR-SN- منيل شيحة,1,29.878360000000001,31.245328000000001,Cairo,
سلطنه,EG,سور دار الدفاع,,سلطنه,,,Direct Sales,Coca-Cola,Aswan,Qualuob,CR-SN- العريش,1,31.133523,33.795937000000002,Cairo,
تشاو,EG,حسن افلاطون من النزهه,,تشاو,,,Direct Sales,Coca-Cola,Aswan,Qualuob,CR-SN- العريش,1,30.611318333,32.280504999999998,Cairo,
شركه مطاعم ابو مازن السوري الاصلي,EG,النزهه,,شركه مطاعم ابو مازن السور,,,Direct Sales,Coca-Cola,Aswan,Qualuob,CR-SN- العريش,1,31.135930999999999,33.791246000000001,Cairo,
O GRILLاو جريل,EG,الثوره,,O GRILLاو جريل,,,Direct Sales,Coca-Cola,Aswan,Qualuob,CR-SN- العريش,1,31.019969,33.022046000000003,Cairo,
البدرEL BADR,EG,الاسكندريه,,البدرEL BADR,,,Direct Sales,Coca-Cola,Aswan,Qualuob,CR-SN- البحيرة 3,1,31.2165,30.603100000000001,Cairo,
السعاده,EG,المرغني,,السعاده,,,Direct Sales,Coca-Cola,Aswan,Qualuob,CR-SN- البحيرة 3,1,31.258649999999999,30.1645,Cairo,
السلطان,EG,سور دار الدفاع متفرع من ش النزهه را,,السلطان,,,Direct Sales,Coca-Cola,Aswan,Qualuob,CR-SN- البحيرة 3,1,30.93573,30.32769,Cairo,
قشطه,EG,النزهه,,قشطه,,,Direct Sales,Coca-Cola,Aswan,Qualuob,CR-SN- البحيرة 3,1,30.90391,30.17895,Cairo,
ابو رياض,EG,كمال رسلان من هارون الرشيد,,ابو رياض,,,Direct Sales,Coca-Cola,Aswan,Qualuob,CR-SN- البحيرة 2,1,31.0425,30.473800000000001,Cairo,
الشبراوي,EG,عمر بن الخطاب-عمارات رامو متفرع من,,الشبراوي,,,Direct Sales,Coca-Cola,Aswan,Qualuob,CR-SN- البحيرة 2,1,31.044260000000001,30.114519999999999,Cairo,
شروق,EG,حسن افلاطون من النزهه,,شروق,,,Direct Sales,Coca-Cola,Aswan,Qualuob,CR-SN- البحيرة 3,1,31.057030000000001,30.086919999999999,Cairo,
مكرونه,EG,الاهرام,,مكرونه,,,Direct Sales,Coca-Cola,Aswan,Qualuob,CR-SN- البحيرة 2,1,30.912510000000001,30.177510000000002,Cairo,
GNILLA,EG,الصديق الدويلي,,GNILLA,,,Direct Sales,Coca-Cola,Aswan,Qualuob,CR-SN- البحيرة 2,1,30.993939999999998,30.33672,Cairo,
ابو مازن,EG,دمشق,,ابو مازن,,,Direct Sales,Coca-Cola,Aswan,Qualuob,CR-SN- كفر الشيخ 1,1,30.778711000000001,31.273942000000002,Cairo,
تكرم عينك,EG,عبد الرحمن الرفاعي,,تكرم عينك,,,Direct Sales,Coca-Cola,Aswan,Qualuob,CR-SN- كفر الشيخ 1,1,31.39823200000000,31.17038700000000,Cairo,
فوود جنFOOD GUN,EG,احمد خشبه,,فوود جنFOOD GUN,,2547897125797820,Direct Sales,Coca-Cola,Aswan,Qualuob,CR-SN- كفر الشيخ 2,1,31.16537,30.75920,Cairo,
هند,EG,النزهه,,هند,,,Direct Sales,Coca-Cola,Aswan,Qualuob,CR-SN- كفر الشيخ 1,1,30.525497000000001,31.287814000000001,Cairo,
TTOMANS,EG,صن سيتي مول - طريق النصر,,TTOMANS,,,Direct Sales,Coca-Cola,Aswan,Qualuob,CR-SN- كفر الشيخ 2,1,30.775466000000002,31.128423999999999,Cairo,
زوبهZOOBA,EG,ش بغداد,,زوبهZOOBA,,,Direct Sales,Coca-Cola,Aswan,Qualuob,CR-SN- كفر الشيخ 2,1,30.876134,31.164529999999999,Cairo,
فينر فالدWIENERWALD,EG,شارع الحجاز,,فينر فالدWIENERWALD,,,Direct Sales,Coca-Cola,Aswan,Qualuob,CR-SN- شرق اسكندرية1,1,31.06671,29.955269999999999,Cairo,
شارع الاكل,EG,النزهه,,شارع الاكل,,87897125797820,Direct Sales,Coca-Cola,Manyal Shiha,Qualuob,CR-SN- شرق اسكندرية1,1,31.237310000000001,29.973780000000001,Cairo,
جوستوGOSTO,EG,النزهه,,جوستوGOSTO,,,Direct Sales,Coca-Cola,Manyal Shiha,Qualuob,CR-SN- شرق اسكندرية1,1,31.098870000000002,29.754930000000002,Cairo,
كدبهKEBDA,EG,عبد الحميد بدوي,,كدبهKEBDA,,,Direct Sales,Coca-Cola,Manyal Shiha,Qualuob,CR-SN- شرق اسكندرية1,1,31.21998808,29.97095583,Cairo,
الباشاLA PASLA,EG,بيروت,,الباشاLA PASLA,,,Direct Sales,Coca-Cola,Manyal Shiha,Qualuob,CR-SN- غرب اسكندرية2,1,31.250340000000001,29.998380000000001,Cairo,
مكانيMAKANI,EG,حسن صادق,,مكانيMAKANI,,,Direct Sales,Coca-Cola,Manyal Shiha,Qualuob,CR-SN- شرق اسكندرية1,1,31.262350000000001,30.02948,Cairo,
MAMA,EG,سيتي ستارز مول,,MAMA,,,Direct Sales,Coca-Cola,Manyal Shiha,Qualuob,CR-SN- شرق اسكندرية1,1,31.321359999999999,30.066189999999999,Cairo,
OSEA SEA FOOD,EG,بيروت,,OSEA SEA FOOD,,47897125797820,Direct Sales,Coca-Cola,Manyal Shiha,Qualuob,CR-SN- غرب اسكندرية1,1,31.180869999999999,29.892589999999998,Cairo,
PONDE ROSA,EG,سيتي ستارز مول,,PONDE ROSA,,,Direct Sales,Coca-Cola,Manyal Shiha,Qualuob,CR-SN- غرب اسكندرية1,1,31.226569999999999,29.971350000000001,Cairo,
YACHAF FISHF CAFE,EG,قريه اويسيس طريق النصر,,YACHAF FISHF CAFE,,,Direct Sales,Coca-Cola,Manyal Shiha,Qualuob,CR-SN- غرب اسكندرية2,1,31.076360000000001,29.760470000000002,Cairo,
زوبهZOOBA,EG,سيتي ستارز مول,,زوبهZOOBA,987123654,187897125797820,Direct Sales,Coca-Cola,Manyal Shiha,Qualuob,DSP-قليوب1,1,30.17985200000000,31.21467900000000,Cairo,
الست حسنيه,EG,قريه اويسيس طريق النصر,,الست حسنيه,,,Direct Sales,Coca-Cola,Manyal Shiha,Qualuob,DSP2منافذمصرالجديده,1,30.11017927,31.37696574,Cairo,
بدويه,EG,سيتي ستارز مول,,بدويه,,,Direct Sales,Coca-Cola,Manyal Shiha,Qualuob,DSP2منافذمصرالجديده,1,30.11017927,31.37696574,Cairo,
برام,EG,سيتي ستارز مول,,برام,,,Direct Sales,Coca-Cola,Manyal Shiha,Qualuob,DSP-منافذمصرالجديده,1,30.11017927,31.37696574,Cairo,
بلانت افديكا,EG,سيتي ستارز مول,,بلانت افديكا,,47897125797820,Direct Sales,Coca-Cola,Manyal Shiha,Qualuob,DSP-منافذمصرالجديده,1,30.11017927,31.37696574,Cairo,
حضر موت,EG,ابو بكر الصديق,,حضر موت,,,Direct Sales,Coca-Cola,Manyal Shiha,Qualuob,DSP-منافذ خاصة وسط,1,30.05958034,31.29449292,Cairo,
علوشALOUSH,EG,عمر بن الخطاب,,علوشALOUSH,,,Direct Sales,Coca-Cola,Manyal Shiha,Qualuob,DSP-منافذ خاصة وسط,1,30.05958034,31.29449292,Cairo,
كايرو,EG,ش عبد الحميد بدوي,,كايرو,,,Direct Sales,Coca-Cola,Manyal Shiha,Qualuob,DSP-منافذ خاصة وسط,1,29.98245801200010,31.34628605000010,Cairo,
كليفيان كريبCLYFEN CREPE,EG,احمد مخيمر من مجدي,,كليفيان كريبCLYFEN CREPE,,,Direct Sales,Coca-Cola,Manyal Shiha,Qualuob,DSP-منافذ خاصة وسط,1,29.98245801200010,31.34628605000010,Cairo,
مشويات الوالياولاد عنتر,EG,كوبري القبه,,مشويات الوالياولاد عنتر,,,Direct Sales,Coca-Cola,Manyal Shiha,Qualuob,DSP-م.خاصه العاصمة,1,29.98087748400010,31.41403058900000,Cairo,
هوليد ايز,EG,الحجاز,,هوليد ايز,,,Direct Sales,Coca-Cola,Manyal Shiha,Qualuob,DSP-م.خاصه العاصمة,1,29.98087748400010,31.41403058900000,Cairo,
يا مال الشام,EG,الحجاز,,يا مال الشام,,,Direct Sales,Coca-Cola,Manyal Shiha,Qualuob,DSP-م. الجبل الاحمر,1,30.048197,31.322321,Cairo,
IL CIELO,EG,من سيتي مول طريق النصر,,IL CIELO,,,Direct Sales,Coca-Cola,Manyal Shiha,Qualuob,DSP-م. الجبل الاحمر,1,30.048197,31.322321,Cairo,
ابو مازن,EG,ابو بكر الصديق,,ابو مازن,,,Direct Sales,Coca-Cola,Manyal Shiha,Qualuob,DSP-م. الجبل الاحمر,1,30.048197,31.322321,Cairo,
المؤمن,EG,ميدان سراي القبه,,المؤمن,,,Direct Sales,Coca-Cola,Manyal Shiha,Qualuob,DSP-م. الجبل الاحمر,1,30.048197,31.322321,Cairo,
حازم حازم,EG,امام مسجد المدينه المنوره,,حازم حازم,,,Direct Sales,Coca-Cola,Manyal Shiha,Qualuob,DSP-م.خاصه العاصمة,1,29.99559575300000,31.42808658500010,Cairo,
شارع برتيتا,EG,عمارات السعوديه,,شارع برتيتا,,,Direct Sales,Coca-Cola,Manyal Shiha,Qualuob,DSP-م.خاصه العاصمة,1,29.99559575300000,31.42808658500010,Cairo,
PETIT PALMYRA,EG,الاهرام,,PETIT PALMYRA,,,Direct Sales,Coca-Cola,Manyal Shiha,Qualuob,DSP- دجله-معادى,1,29.953756,31.260841,Cairo,
حضرموت قصر المندي,EG,حسني مبارك,,حضرموت قصر المندي,,,Direct Sales,Coca-Cola,Manyal Shiha,Qualuob,DSP- دجله-معادى,1,29.953756,31.260841,Cairo,
حوده احمد شمس,EG,المنتصر,,حوده احمد شمس,,,Direct Sales,Coca-Cola,Manyal Shiha,Qualuob,DSP2منافذمصرالجديده,1,30.07777241,31.29073957,Cairo,
ديفينوDIVINO,EG,بيروت,,ديفينوDIVINO,,,Direct Sales,Coca-Cola,Manyal Shiha,Qualuob,DSP2منافذمصرالجديده,1,30.07777241,31.29073957,Cairo,
راس البر,EG,بن سندر من جسر السويس,,راس البر,,,Direct Sales,Coca-Cola,Manyal Shiha,Qualuob,TELES-Sharm ElSheikh,1,31.077398,34.15041,Cairo,
صلاح محمود واولاده,EG,بن جعرم,,صلاح محمود واولاده,,,Direct Sales,Coca-Cola,Manyal Shiha,Qualuob,TELES-Sharm ElSheikh,1,27.899264,34.327686,Cairo,
طبق بيروت,EG,خالد الحق عند فاروق اتاور,,طبق بيروت,,,Direct Sales,Coca-Cola,Manyal Shiha,Qualuob,DSC-العقاد,1,24.08241061,32.89148746,Cairo,
فرحات,EG,الحجاز داخل ممر العماره,,فرحات,,,Direct Sales,Coca-Cola,Manyal Shiha,Qualuob,DSC-العقاد,1,24.08241061,32.89148746,Cairo,
فووود مودFOOD MOOD,EG,شارع 19,,فووود مودFOOD MOOD,,,Direct Sales,Coca-Cola,Manyal Shiha,Qualuob,TELES-Manyal Shiha,1,30.05078525,31.20142207,Cairo,
كارلوس,EG,بيروت,,كارلوس,,,Direct Sales,Coca-Cola,Manyal Shiha,Qualuob,TELES-East Cairo,1,30.0308606,31.4054741,Cairo,
ليال الشام,EG,ش فريد سميكه بجوار جاد,,ليال الشام,,,Direct Sales,Coca-Cola,Manyal Shiha,Qualuob,DSP-العين السخنة,1,29.748812,32.213583,Cairo,
ماركت امون,EG,عثمان بن عفان,,ماركت امون,,,Direct Sales,Coca-Cola,Manyal Shiha,Qualuob,DSP-العين السخنة,1,29.748812,32.213583,Cairo,
محي سيد,EG,محمد فريد سوق الفتح,,محي سيد,,,Direct Sales,Coca-Cola,Manyal Shiha,Qualuob,TELES-Central Cairo,1,30.07256,31.275346,Cairo,
نيويورك فرايز,EG,سيتي ستارز مول,,نيويورك فرايز,,,Direct Sales,Coca-Cola,Manyal Shiha,Qualuob,TELES-Central Cairo,1,30.072021,31.274844,Cairo,
هند,EG,جسر السويس مع ابو بكر الصديق,,هند,,,Direct Sales,Coca-Cola,Manyal Shiha,Qualuob,DSP- دجله-معادى,1,29.95989097000010,31.27351863000010,Cairo,
وائل,EG,عثمان ابن عفان,,وائل,,,Direct Sales,Coca-Cola,Manyal Shiha,Qualuob,DSP- دجله-معادى,1,29.95989097000010,31.27351863000010,Cairo,
ويندوز,EG,سيتي ستارز مول,,ويندوز,,,Direct Sales,Coca-Cola,Manyal Shiha,Qualuob,DSP- دجله-معادى,1,29.96010931000010,31.27639522000000,Cairo,
جعفر,EG,14 شارع خيمه المغربلين,,جعفر,,,Direct Sales,Coca-Cola,Manyal Shiha,Qualuob,DSP- دجله-معادى,1,29.96010931000010,31.27639522000000,Cairo,
علاء,EG,عبده باشا,,علاء,,,Direct Sales,Coca-Cola,Manyal Shiha,Qualuob,TELES-Maadi,1,29.95253063,31.25612729,Cairo,
ماجده,EG,شريف باشا,,ماجده,,,Direct Sales,Coca-Cola,Manyal Shiha,Qualuob,DSP-الاتحاد105-معادى,1,29.9528880,31.2562380,Cairo,
اشرف,EG,ميدان حليم,,اشرف,,,Direct Sales,Coca-Cola,Manyal Shiha,Qualuob,DSP-الاتحاد105-معادى,1,29.9528880,31.2562380,Cairo,
الحريه,EG,المصرين,,الحريه,,,Direct Sales,Coca-Cola,Manyal Shiha,Qualuob,DSP-النرجس,1,30.01881117100000,31.47978133400010,Cairo,
حسام,EG,شارع عبدالخالق السنباطي,,حسام,,,Direct Sales,Coca-Cola,Manyal Shiha,Qualuob,DSP-النرجس,1,30.01881117100000,31.47978133400010,Cairo,
خردوات ترك,EG,غرب القشلاق,,خردوات ترك,,,Direct Sales,Coca-Cola,Manyal Shiha,Qualuob,DSP-الحى المتميز,1,30.00851540300000,31.00521977500010,Cairo,
ساكسي,EG,محمد بك الالفي,,ساكسي,,,Direct Sales,Coca-Cola,Manyal Shiha,Qualuob,DSP-الحى المتميز,1,30.00851540300000,31.00521977500010,Cairo,
محمد علي,EG,التحرير,,محمد علي,,,Direct Sales,Coca-Cola,Manyal Shiha,Qualuob,DSC-ش بورسعيد,1,30.163708,31.336986,Cairo,
طارق المصري,EG,منتصف ش الاكاديميه,,طارق المصري,,,Direct Sales,Coca-Cola,Manyal Shiha,Qualuob,DSC-ش بورسعيد,1,30.163708,31.336986,Cairo,
نجلاء عطيه,EG,متفرع من ش القلعه,,نجلاء عطيه,,,Direct Sales,Coca-Cola,Manyal Shiha,Qualuob,DSP-طرح البحر,1,31.31414907,32.15700142,Cairo,
الارزاق بالله,EG,ش التوفيقيه,,الارزاق بالله,,,Direct Sales,Coca-Cola,Manyal Shiha,Qualuob,DSP-طرح البحر,1,31.31414907,32.15700142,Cairo,
الرضا,EG,بورسعيد,,الرضا,,,Direct Sales,Coca-Cola,Manyal Shiha,Qualuob,TELES-Central Cairo,1,30.054743,31.24653,Cairo,
الظاهر جراند,EG,فخري عبدالقادر,,الظاهر جراند,,,Direct Sales,Coca-Cola,Manyal Shiha,Qualuob,DSP-العين السخنة,1,29.766015,32.206527,Cairo,
النصر,EG,عدلي,,النصر,,,Direct Sales,Coca-Cola,Manyal Shiha,Qualuob,DSP-العين السخنة,1,29.766015,32.206527,Cairo,
ايسلندISLAND,EG,تقاطه ش 9 مع ش 1,,ايسلندISLAND,,,Direct Sales,Coca-Cola,Manyal Shiha,Qualuob,DSP-1 الجونة,1,27.40601042800010,33.67502557500010,Cairo,
حماد,EG,القصر العيني,,حماد,,,Direct Sales,Coca-Cola,Manyal Shiha,Qualuob,DSP-1 الجونة,1,27.40601042800010,33.67502557500010,Cairo,
زهره الميداننادي الشطرنج,EG,زين العابدين,,زهره الميداننادي الشطرنج,,,Direct Sales,Coca-Cola,Manyal Shiha,Qualuob,DSP-غيط العنب,1,31.17794685,29.91555325,Cairo,
شروق,EG,خورشيد,,شروق,,,Direct Sales,Coca-Cola,Manyal Shiha,Qualuob,DSP-غيط العنب,1,31.17794685,29.91555325,Cairo,
علاء الدين,EG,علي يونس,,علاء الدين,,,Direct Sales,Coca-Cola,Manyal Shiha,Qualuob,DSP2منافذمصرالجديده,1,30.07283176,31.30793582,Cairo,
علي كيفكفاردار,EG,شريف باشا,,علي كيفكفاردار,,,Direct Sales,Coca-Cola,Manyal Shiha,Qualuob,DSP2منافذمصرالجديده,1,30.07283176,31.30793582,Cairo,
عم احمد,EG,مسجد الهاني,,عم احمد,,,Direct Sales,Coca-Cola,Manyal Shiha,Qualuob,TELES-Hurghada,1,25.03083535,34.71183573,Cairo,
فطاطري الحسين,EG,الازهر,,فطاطري الحسين,,,Direct Sales,Coca-Cola,Manyal Shiha,Qualuob,TELES-Heliopolis,1,30.08255951,31.3335462,Cairo,
فول وطعميهالبغل,EG,خيرت,,فول وطعميهالبغل,,,Direct Sales,Coca-Cola,Manyal Shiha,Qualuob,TELES-Maadi,1,29.9973140,31.2437560,Cairo,
قصر الرحماني,EG,ش بواب الفتوح,,قصر الرحماني,,,Direct Sales,Coca-Cola,Manyal Shiha,Qualuob,DSP-م.خاصه العاصمة,1,30.03047400000000,31.42332000000000,Cairo,
ندوه الامراء,EG,28 جامع الاسماعيلي - خيرت,,ندوه الامراء,,,Direct Sales,Coca-Cola,Manyal Shiha,Qualuob,DSP-م.خاصه العاصمة,1,30.03047400000000,31.42332000000000,Cairo,
ابناء سوهاجابناء خليفه,EG,السكه الحديد,,ابناء سوهاجابناء خليفه,,,Direct Sales,Coca-Cola,Manyal Shiha,Qualuob,DSP-منافذ خاصة وسط 2,1,30.052211,31.27627,Cairo,
اضواء المدينه,EG,رمسيس,,اضواء المدينه,,,Direct Sales,Coca-Cola,Manyal Shiha,Qualuob,DSP-منافذ خاصة وسط 2,1,30.052211,31.27627,Cairo,
الاشول,EG,طلعت حرب,,الاشول,,,Direct Sales,Coca-Cola,Manyal Shiha,Qualuob,TELES-Amria,1,31.02970003,29.77011098,Cairo,
وكاله السحيمي,EG,المعز لدين الله,,وكاله السحيمي,,,Direct Sales,Coca-Cola,Manyal Shiha,Qualuob,TELES-East Cairo,1,29.973772,31.375283,Cairo,
CAFÉ AL FARS,EG,رمسيس,,CAFÉ AL FARS,,,Direct Sales,Coca-Cola,Manyal Shiha,Qualuob,TELES-East Cairo 2,1,29.971678,31.489248,Cairo,
الفرسان,EG,ميدان السكاكيني,,الفرسان,,,Direct Sales,Coca-Cola,Manyal Shiha,Qualuob,DSP- ش المنيل1-معادى,1,30.03087269000000,31.22964851000010,Cairo,
النجاح,EG,سرايا الازبكيه,,النجاح,,,Direct Sales,Coca-Cola,Manyal Shiha,Qualuob,DSP- ش المنيل1-معادى,1,30.03087269000000,31.22964851000010,Cairo,
ام كلثوم,EG,سرايا الازبكيه,,ام كلثوم,,,Direct Sales,Coca-Cola,Manyal Shiha,Qualuob,DSP-منافذ خاصة وسط 2,1,30.05958961,31.29452927,Cairo,
اولاد مامور,EG,الجيش,,اولاد مامور,,,Direct Sales,Coca-Cola,Manyal Shiha,Qualuob,DSP-منافذ خاصة وسط 2,1,30.05958961,31.29452927,Cairo,
بابا عبدهعبد الحكيم الداعي,EG,البنهاوي,,بابا عبدهعبد الحكيم الداع,,,Direct Sales,Coca-Cola,Manyal Shiha,Qualuob,TELES-Central Cairo,1,30.07317627,31.27509766,Cairo,
بانوراما,EG,ش حسين باشا العمري مع ش محمد بسيوني,,بانوراما,,,Direct Sales,Coca-Cola,Manyal Shiha,Qualuob,DSC-المصانع,1,29.9118745,30.89764472,Cairo,
بحه,EG,الناصريه,,بحه,,,Direct Sales,Coca-Cola,Manyal Shiha,Qualuob,DSC-المصانع,1,29.9118745,30.89764472,Cairo,
بوسي كات,EG,26-يوليو,,بوسي كات,,,Direct Sales,Coca-Cola,Manyal Shiha,Qualuob,TELES-Hurghada,1,27.22269936,33.78393296,Cairo,
حبايب السيده,EG,السد البراني,,حبايب السيده,,,Direct Sales,Coca-Cola,Qualuob,Qualuob,TELES-East Cairo,1,29.9675632,31.480407,Cairo,
زمزم,EG,حليم باشا,,زمزم,,,Direct Sales,Coca-Cola,Qualuob,Qualuob,DSP-الشاطئ العام,1,27.24991590000010,33.83760248000000,Cairo,
ساعه صفا,EG,الناصريه,,ساعه صفا,,,Direct Sales,Coca-Cola,Qualuob,Qualuob,DSP-الشاطئ العام,1,27.24991590000010,33.83760248000000,Cairo,
كشكمحمد,EG,ابن عطاء الاسكندراني,,كشكمحمد,,,Direct Sales,Coca-Cola,Qualuob,Qualuob,DSC-محطه الاقصر,1,25.69649,32.64452,Cairo,
ليالي القمر,EG,زكريا احمد خلف سينما كوزمز,,ليالي القمر,,,Direct Sales,Coca-Cola,Qualuob,Qualuob,DSC-محطه الاقصر,1,25.69649,32.64452,Cairo,
محمد موافي واولاده,EG,جواد حسني,,محمد موافي واولاده,,,Direct Sales,Coca-Cola,Qualuob,Qualuob,TELES-Hurghada,1,25.0599801,34.89807176,Cairo,
مطعم,EG,اسماعيل سري,,مطعم,,,Direct Sales,Coca-Cola,Qualuob,Qualuob,TELES-Heliopolis,1,30.183159,31.461036,Cairo,
نجمه القبيسي,EG,القبيسي متفرع من الظاهر,,نجمه القبيسي,,,Direct Sales,Coca-Cola,Qualuob,Qualuob,DSP-طرح البحر,1,31.268998950,32.311265660,Cairo,
همام,EG,سرايا الازبكيه,,همام,,,Direct Sales,Coca-Cola,Qualuob,Qualuob,DSP-طرح البحر,1,31.268998950,32.311265660,Cairo,
زين العابدين,EG,السيده عائشه,,زين العابدين,,,Direct Sales,Coca-Cola,Qualuob,Qualuob,DSC-المطار بورسعيد,1,31.30841,32.163389,Cairo,
AFC,EG,سرايا الازبكيه,,AFC,,,Direct Sales,Coca-Cola,Qualuob,Qualuob,DSC-المطار بورسعيد,1,31.30841,32.163389,Cairo,
التوفيقيه,EG,سرايا الازبكيه,,التوفيقيه,,,Direct Sales,Coca-Cola,Qualuob,Qualuob,TELES-East Cairo 2,1,30.02982797,31.34763237,Cairo,
تيك اواي سعودي,EG,الجيش,,تيك اواي سعودي,,,Direct Sales,Coca-Cola,Qualuob,Qualuob,TELES-East Cairo,1,30.0330014,31.341734,Cairo,
الجريون,EG,داخل ممر,,الجريون,,,Direct Sales,Coca-Cola,Qualuob,Qualuob,DSP-الازاريطه,1,31.19699658,29.90401935,Cairo,
فتحي ملك الحمام,EG,شارع 9 - المقطم,,فتحي ملك الحمام,,,Direct Sales,Coca-Cola,Qualuob,Qualuob,TELES-Central Cairo,1,30.054246,31.244294,Cairo,
لبيب العطار,EG,محمد عبده,,لبيب العطار,,,Direct Sales,Coca-Cola,Qualuob,Qualuob,TELES-Amria,1,31.24630268,29.96611677,Cairo,
مطعم رضا,EG,القلعه,,مطعم رضا,,,Direct Sales,Coca-Cola,Qualuob,Qualuob,TELES-East Cairo 2,1,30.01927048,31.49425852,Cairo,
جي ام,EG,العباسيه,,جي ام,,,Direct Sales,Coca-Cola,Qualuob,Qualuob,TELES-October,1,30.06420739,31.02691047,Cairo,
مطعم فول,EG,صلاح سالم,,مطعم فول,,,Direct Sales,Coca-Cola,Qualuob,Qualuob,TELES-October,1,30.02680418,31.01361526,Cairo,
سلطان العصر,EG,النيل,,سلطان العصر,,,Direct Sales,Coca-Cola,Qualuob,Qualuob,TELES-October,1,30.02656058,31.01382537,Cairo,
مطعم,EG,بدوي عبد الصبور,,مطعم,,,Direct Sales,Coca-Cola,Qualuob,Qualuob,DSP-الشاطئ العام,1,27.25613835000010,33.82839251000010,Cairo,
سلسله التعاون,EG,البنزينه القديمه,,سلسله التعاون,,,Direct Sales,Coca-Cola,Qualuob,Qualuob,DSP-الشاطئ العام,1,27.25613835000010,33.82839251000010,Cairo,
اولاد لولو,EG,جمال عبد الناصر,,اولاد لولو,,,Direct Sales,Coca-Cola,Qualuob,Qualuob,DSP-المحكمة,1,30.10482861200010,31.32724758600010,Cairo,
نسر البريه,EG,عبدو امين,,نسر البريه,,,Direct Sales,Coca-Cola,Qualuob,Qualuob,DSP-المحكمة,1,30.10482861200010,31.32724758600010,Cairo,
المدينه المنوره,EG,جامع السبتيه,,المدينه المنوره,,,Direct Sales,Coca-Cola,Qualuob,Qualuob,DSP-التجمع الثالث,1,29.98011762400010,31.42720602700010,Cairo,
ملك فون,EG,حسن الصبان,,ملك فون,,,Direct Sales,Coca-Cola,Qualuob,Qualuob,DSP-التجمع الثالث,1,29.98011762400010,31.42720602700010,Cairo,
محمد السيد,EG,مسجد داود في الباجور السبتيه,,محمد السيد,,,Direct Sales,Coca-Cola,Qualuob,Qualuob,DSP-التجمع الخامس,1,30.01268890800000,31.42131692300010,Cairo,
ابن حلال,EG,السادات,,ابن حلال,,,Direct Sales,Coca-Cola,Qualuob,Qualuob,DSP-التجمع الخامس,1,30.01268890800000,31.42131692300010,Cairo,
الشامي,EG,الهرم,,الشامي,,,Direct Sales,Coca-Cola,Qualuob,Qualuob,DSP-م.خاصه العاصمة,1,30.021438,31.411797,Cairo,
اولاد الزعيم,EG,طريق ترعه المنصوريه,,اولاد الزعيم,,,Direct Sales,Coca-Cola,Qualuob,Qualuob,DSP-م.خاصه العاصمة,1,30.021438,31.411797,Cairo,
ابو علي,EG,العروبه,,ابو علي,,,Direct Sales,Coca-Cola,Qualuob,Qualuob,DSP-التجمع الثالث,1,29.98009553800010,31.44254290600000,Cairo,
الحلميه,EG,كعبيش,,الحلميه,,,Direct Sales,Coca-Cola,Qualuob,Qualuob,DSP-التجمع الثالث,1,29.98009553800010,31.44254290600000,Cairo,
الحمد,EG,محمود الجمال,,الحمد,,,Direct Sales,Coca-Cola,Qualuob,Qualuob,DSP-التجمع الثالث,1,29.98009554000000,31.44254291000000,Cairo,
الرياناحمد يحي,EG,سعد زغلول,,الرياناحمد يحي,,,Direct Sales,Coca-Cola,Qualuob,Qualuob,DSP-التجمع الثالث,1,29.98009554000000,31.44254291000000,Cairo,
السلمانيه,EG,الشيخ الجديد,,السلمانيه,,,Direct Sales,Coca-Cola,Qualuob,Qualuob,DSP-الفسطاط,1,30.013218,31.245772,Cairo,
العمده,EG,المريوطيه,,العمده,,,Direct Sales,Coca-Cola,Qualuob,Qualuob,DSP-السادس 1,1,30.04779600000000,31.31017100000000,Cairo,
حجي البرديسي,EG,الاهرام,,حجي البرديسي,,,Direct Sales,Coca-Cola,Qualuob,Qualuob,DSP-السادس 1,1,30.04779600000000,31.31017100000000,Cairo,
حكايات زمان,EG,المريوطيه,,حكايات زمان,,,Direct Sales,Coca-Cola,Qualuob,Qualuob,TELES-Manyal Shiha,1,30.03386742,31.21972285,Cairo,
حكايه,EG,خاتم المرسلين,,حكايه,,,Direct Sales,Coca-Cola,Qualuob,Qualuob,DSP-جليم,1,31.23884140300000,29.95371774400010,Cairo,
ليالي زمان,EG,المساكن,,ليالي زمان,,,Direct Sales,Coca-Cola,Qualuob,Qualuob,DSP-جليم,1,31.23884140300000,29.95371774400010,Cairo,
بقاله,EG,خالد امين ش عبد اللطيف عبد الفتاح,,بقاله,,,Direct Sales,Coca-Cola,Qualuob,Qualuob,DSC-خط الشعراء,1,31.41398352000000,31.79602015000010,Cairo,
عيسوي العطار,EG,عمارات السعوديه,,عيسوي العطار,,,Direct Sales,Coca-Cola,Qualuob,Qualuob,DSC-خط الشعراء,1,31.41398352000000,31.79602015000010,Cairo,
ابو حمزه,EG,ش ابو اليزيد,,ابو حمزه,,,Direct Sales,Coca-Cola,Qualuob,Qualuob,DSP-احمد عرابى,1,30.06628948000000,31.20755523000000,Cairo,
احباب المصطفي,EG,علي ابن ابي طالب متفرع من ترسا,,احباب المصطفي,,,Direct Sales,Coca-Cola,Qualuob,Qualuob,DSP-احمد عرابى,1,30.06628948000000,31.20755523000000,Cairo,
نجمه الميدان,EG,عزبه شفيقه,,نجمه الميدان,,,Direct Sales,Coca-Cola,Qualuob,Qualuob,TELES-Sahel 2,1,31.37131337,27.18099016,Cairo,
سعيد عبد الغني,EG,ماضي,,سعيد عبد الغني,,,Direct Sales,Coca-Cola,Qualuob,Qualuob,DSP-منافذمصرالجديده,1,30.08935895,31.31753127,Cairo,
عبادالرحمن,EG,جمال عبد الناصر,,عبادالرحمن,,,Direct Sales,Coca-Cola,Qualuob,Qualuob,DSP-منافذمصرالجديده,1,30.08935895,31.31753127,Cairo,
ابو عبده,EG,الملك فيصل,,ابو عبده,,,Direct Sales,Coca-Cola,Qualuob,Qualuob,DSP-منافذمصرالجديده,1,30.08935895,31.31753127,Cairo,
حسن عبد الحميد,EG,الشهيد عبدالرحمن,,حسن عبد الحميد,,,Direct Sales,Coca-Cola,Qualuob,Qualuob,DSP-منافذمصرالجديده,1,30.08935895,31.31753127,Cairo,
كشك عبد الزاهر,EG,مساكن مصنع السكر,,كشك عبد الزاهر,,,Direct Sales,Coca-Cola,Qualuob,Qualuob,DSP-منافذمصرالجديده,1,30.08935895,31.31753127,Cairo,
مقهي الموقف,EG,الموقف الجديد,,مقهي الموقف,,,Direct Sales,Coca-Cola,Qualuob,Qualuob,DSP-منافذمصرالجديده,1,30.08935895,31.31753127,Cairo,
مقهي,EG,ش الكوبري,,مقهي,,,Direct Sales,Coca-Cola,Qualuob,Qualuob,DSP-منافذمصرالجديده,1,30.08935895,31.31753127,Cairo,
MAXIME,EG,صلاح الدين - خالد بن الوليد,,MAXIME,,,Direct Sales,Coca-Cola,Qualuob,Qualuob,DSP-منافذمصرالجديده,1,30.08935895,31.31753127,Cairo,
ام كلثوم,EG,السوق,,ام كلثوم,,,Direct Sales,Coca-Cola,Qualuob,Qualuob,DSP-الشروق 1,1,30.12892877,31.61782782,Cairo,
COSTA,EG,ش الدولي,,COSTA,,,Direct Sales,Coca-Cola,Qualuob,Qualuob,DSP-الشروق 1,1,30.12892877,31.61782782,Cairo,
بشاير,EG,البحيرات,,بشاير,,,Direct Sales,Coca-Cola,Qualuob,Qualuob,DSP-الشروق 1,1,30.12892877,31.61782782,Cairo,
الوطنيه,EG,عبدالحميد طه,,الوطنيه,,,Direct Sales,Coca-Cola,Qualuob,Qualuob,DSP-الشروق 1,1,30.12892877,31.61782782,Cairo,
حماده احمد,EG,المنشيه,,حماده احمد,,,Direct Sales,Coca-Cola,Qualuob,Qualuob,DSP-الشروق 1,1,30.12892877,31.61782782,Cairo,
دردشه كافيه,EG,المنشيه,,دردشه كافيه,,,Direct Sales,Coca-Cola,Qualuob,Qualuob,DSP-الشروق 1,1,30.12892877,31.61782782,Cairo,
NILE VALLEY HOTEL,EG,البحيرات,,NILE VALLEY HOTEL,,,Direct Sales,Coca-Cola,Qualuob,Qualuob,DSP-الشروق 1,1,30.12892186,31.61788962,Cairo,
ابو علي و حمزه,EG,رمسيس,,ابو علي و حمزه,,,Direct Sales,Coca-Cola,Qualuob,Qualuob,DSP-الشروق 1,1,30.12892186,31.61788962,Cairo,
الحاج شعبان,EG,سعد زغلول,,الحاج شعبان,,,Direct Sales,Coca-Cola,Qualuob,Qualuob,DSP-الشروق 1,1,30.12892877,31.61782782,Cairo,
محمد توفيق,EG,الرئيسي - الاقالته,,محمد توفيق,,,Direct Sales,Coca-Cola,Qualuob,Qualuob,DSP-الشروق 1,1,30.12892877,31.61782782,Cairo,
JUICE BAR,EG,المدينه الجامعيه السنتر,,JUICE BAR,,,Direct Sales,Coca-Cola,Qualuob,Qualuob,DSP-الشروق 1,1,30.12892877,31.61782782,Cairo,
المحمدي,EG,المنشيه,,المحمدي,,,Direct Sales,Coca-Cola,Qualuob,Qualuob,DSP-الشروق 1,1,30.12892877,31.61782782,Cairo,
بستو,EG,الجمهوريه,,بستو,,,Direct Sales,Coca-Cola,Qualuob,Qualuob,DSP-الشروق 1,1,30.12892877,31.61782782,Cairo,
سلسله فرنش فرايزFRENCH FRIES,EG,من الجمهوريه مع المشايه,,سلسله فرنش فرايزFRENCH FR,,,Direct Sales,Coca-Cola,Qualuob,Qualuob,DSP-الشروق 1,1,30.12892877,31.61782782,Cairo,
احمد السعيد,EG,سيدي عبد القادر,,احمد السعيد,,,Direct Sales,Coca-Cola,Qualuob,Qualuob,DSP-الشروق 1,1,30.12892877,31.61782782,Cairo,
احمد محسن,EG,الرئيسي,,احمد محسن,,,Direct Sales,Coca-Cola,Qualuob,Qualuob,DSP-الشروق 1,1,30.12892877,31.61782782,Cairo,
اسواق فارس,EG,عرفات سلطان وعبد السلام عارف,,اسواق فارس,,,Direct Sales,Coca-Cola,Qualuob,Qualuob,DSP-الشروق 1,1,30.12892877,31.61782782,Cairo,
حسين رزق,EG,الجمهوريه,,حسين رزق,,,Direct Sales,Coca-Cola,Qualuob,Qualuob,DSP-الشروق 1,1,30.12892877,31.61782782,Cairo,
البقاله الحديثه,EG,الهنداوي,,البقاله الحديثه,,,Direct Sales,Coca-Cola,Qualuob,Qualuob,DSP-الشروق 1,1,30.12892877,31.61782782,Cairo,
الربيع,EG,ش كامل ليله مستشفي طلخا-بجوار معهد,,الربيع,,,Direct Sales,Coca-Cola,Qualuob,Qualuob,DSP-الشروق 1,1,30.12892877,31.61782782,Cairo,
الرحمن,EG,ميدان سندوب,,الرحمن,,,Direct Sales,Coca-Cola,Qualuob,Qualuob,DSP-الشروق 1,1,30.12892877,31.61782782,Cairo,
العمده,EG,الامام محمد عبده متفرع من قناه السو,,العمده,,,Direct Sales,Coca-Cola,Qualuob,Qualuob,DSP-الشروق 1,1,30.12892877,31.61782782,Cairo,
العميد,EG,عمر بن الخطاب داير الناحيه,,العميد,,,Direct Sales,Coca-Cola,Qualuob,Qualuob,DSP-الشروق 1,1,30.12892877,31.61782782,Cairo,
ايه و ياراام ايه,EG,الجمهوريه,,ايه و ياراام ايه,,,Direct Sales,Coca-Cola,Qualuob,Qualuob,DSP-الشروق 1,1,30.12892877,31.61782782,Cairo,
بقاله,EG,ش طلخه شربين,,بقاله,,,Direct Sales,Coca-Cola,Qualuob,Qualuob,DSP-الحى المتميز,1,29.96472180000010,31.05740780000010,Cairo,
جمال,EG,السلطان سليم مع عبده الجيار,,جمال,,,Direct Sales,Coca-Cola,Qualuob,Qualuob,DSP-الحى المتميز,1,29.96472180000010,31.05740780000010,Cairo,
جمال كامل,EG,السكه الحديد خلف مكتب البريد-من ا,,جمال كامل,,,Direct Sales,Coca-Cola,Qualuob,Qualuob,DSP-الثامن,1,30.07033957000000,31.35661282000010,Cairo,
حبيبه,EG,المضرب امام الباشا,,حبيبه,,,Direct Sales,Coca-Cola,Qualuob,Qualuob,DSP-الثامن,1,30.07033957000000,31.35661282000010,Cairo,
ساره,EG,الترعه بجوار صيدليه الوفاء,,ساره,,,Direct Sales,Coca-Cola,Qualuob,Qualuob,DSP-الثامن,1,30.07064808500010,31.35519405800010,Cairo,
طارقطارق غانم,EG,ش الدراسات,,طارقطارق غانم,,,Direct Sales,Coca-Cola,Qualuob,Qualuob,DSP-الثامن,1,30.07064808500010,31.35519405800010,Cairo,
فوزيه رمضانام فارس,EG,داير الناحيه,,فوزيه رمضانام فارس,,,Direct Sales,Coca-Cola,Qualuob,Qualuob,DSP-الثامن,1,30.07026500000010,31.35638833300000,Cairo,
كشك دعاء,EG,ش المضرب,,كشك دعاء,,,Direct Sales,Coca-Cola,Qualuob,Qualuob,DSP-الثامن,1,30.07026500000010,31.35638833300000,Cairo,
كوك,EG,ش الدخيل,,كوك,,,Direct Sales,Coca-Cola,Qualuob,Qualuob,DSP-الثامن,1,30.07156333300000,31.36049333300010,Cairo,
ماشاء الله,EG,الجامع الكبير,,ماشاء الله,,,Direct Sales,Coca-Cola,Qualuob,Qualuob,DSP-الثامن,1,30.07156333300000,31.36049333300010,Cairo,
محمد ابو خطاب,EG,محمد الجندي من ش الشهيد محمد متولي,,محمد ابو خطاب,,,Direct Sales,Coca-Cola,Qualuob,Qualuob,DSP-الثامن,1,30.07153333300000,31.35513000000000,Cairo,
معاذ,EG,المصرف-الفرن من ش عبد السلام عارف,,معاذ,,,Direct Sales,Coca-Cola,Qualuob,Qualuob,DSP-الثامن,1,30.07153333300000,31.35513000000000,Cairo,
وسط البلد,EG,داير الناحيه,,وسط البلد,,,Direct Sales,Coca-Cola,Qualuob,Qualuob,DSP-الثامن,1,30.07137666700000,31.36044333300000,Cairo,
ولاد البلد,EG,السوق بجوار صيدليه مومن,,ولاد البلد,,,Direct Sales,Coca-Cola,Qualuob,Qualuob,DSP-الثامن,1,30.07137666700000,31.36044333300000,Cairo,
ياسر الصديق عرابي,EG,داير الناحيه,,ياسر الصديق عرابي,,,Direct Sales,Coca-Cola,Qualuob,Qualuob,DSP-الثامن,1,30.07054926000010,31.35720784000010,Cairo,
SUPER PIZZA,EG,ش عبد الستار امين,,SUPER PIZZA,,,Direct Sales,Coca-Cola,Qualuob,Qualuob,DSP-الثامن,1,30.07054926000010,31.35720784000010,Cairo,
TCCKETS,EG,جيهان,,TCCKETS,,,Direct Sales,Coca-Cola,Qualuob,Qualuob,DSP-الثامن,1,30.07029613000000,31.35684866000000,Cairo,
ابو الفضل,EG,النادي,,ابو الفضل,,,Direct Sales,Coca-Cola,Qualuob,Qualuob,DSP-الثامن,1,30.07029613000000,31.35684866000000,Cairo,
ابو محمد,EG,جمال الدين الافغاني,,ابو محمد,,,Direct Sales,Coca-Cola,Qualuob,Qualuob,DSP-الثامن,1,30.07171604,31.3564897,Cairo,
اسامهابو هشام,EG,السكه الجديده امام السنترال,,اسامهابو هشام,,,Direct Sales,Coca-Cola,Qualuob,Qualuob,DSP-الثامن,1,30.07171604,31.3564897,Cairo,
الايمان,EG,ميدان سندوب بجوار استديو رميت,,الايمان,,,Direct Sales,Coca-Cola,Qualuob,Qualuob,DSP-الزمالك 2-شيحا,1,30.044427,31.2235,Cairo,
البحر,EG,البحر,,البحر,,,Direct Sales,Coca-Cola,Qualuob,Qualuob,DSP-الزمالك 2-شيحا,1,30.044427,31.2235,Cairo,
التوراحي,EG,ش قناه السويسبجوار مستشفي الخير,,التوراحي,,,Direct Sales,Coca-Cola,Qualuob,Qualuob,DSP-الزمالك 2-شيحا,1,30.044876,31.2225,Cairo,
الجمهوريه,EG,ش ترعه البلامون,,الجمهوريه,,,Direct Sales,Coca-Cola,Qualuob,Qualuob,DSP-الزمالك 2-شيحا,1,30.044876,31.2225,Cairo,
الزعيم,EG,السوق التجاري,,الزعيم,,,Direct Sales,Coca-Cola,Qualuob,Qualuob,DSP-الزمالك 2-شيحا,1,30.045551,31.221877,Cairo,
الزهراء,EG,الجلاء بجوار الفخراني,,الزهراء,,,Direct Sales,Coca-Cola,Qualuob,Qualuob,DSP-الزمالك 2-شيحا,1,30.045551,31.221877,Cairo,
السعاده,EG,ش عثمان السحراوي,,السعاده,,,Direct Sales,Coca-Cola,Qualuob,Qualuob,DSP-الزمالك 2-شيحا,1,30.0464160000001,31.225179,Cairo,
السيد هريدي,EG,الهادي,,السيد هريدي,,,Direct Sales,Coca-Cola,Qualuob,Qualuob,DSP-الزمالك 2-شيحا,1,30.0464160000001,31.225179,Cairo,
الشيخ,EG,ميدان سندوب,,الشيخ,,,Direct Sales,Coca-Cola,Qualuob,Qualuob,DSP-الزمالك 2-شيحا,1,30.045086,31.2201,Cairo,
النخيل,EG,عبد السلام عارف بجوار سوبر مايا,,النخيل,,,Direct Sales,Coca-Cola,Qualuob,Qualuob,DSP-الزمالك 2-شيحا,1,30.045086,31.2201,Cairo,
ام الدنيا,EG,المستشفي,,ام الدنيا,,,Direct Sales,Coca-Cola,Qualuob,Qualuob,DSP-الزمالك 2-شيحا,1,30.04517542000010,31.22106751000010,Cairo,
اندريه,EG,الجمهوريه بجوار مديريه الامن,,حاتي الدمياطي,,,Direct Sales,Coca-Cola,Qualuob,Qualuob,DSP-الزمالك 2-شيحا,1,30.04517542000010,31.22106751000010,Cairo,
تشيكن بارتي,EG,عبده معروف امام صيدليه الفار,,خير زمان,,,Direct Sales,Coca-Cola,Qualuob,Qualuob,DSP-الزمالك 2-شيحا,1,30.045109,31.2208,Cairo,
تنوره,EG,ش الترعه,,سفن داي,,,Key Accounts,Coca-Cola,Qualuob,Qualuob,DSP-الزمالك 2-شيحا,1,30.045109,31.2208,Cairo,
حاتي الدمياطي,EG,ش الجمهوريه امام دار المعادي كوبري,,سلسله فرنش فرايزFRENCH FRIES,,,Key Accounts,Coca-Cola,Qualuob,Qualuob,DSP-الشيخ زايد 3,1,30.08051452,30.97722506,Cairo,
خير زمان,EG,المستشفي العام,,سوسن,,,Direct Sales,Coca-Cola,Qualuob,Qualuob,DSP-الشيخ زايد 3,1,30.08051452,30.97722506,Cairo,
سفن داي,EG,المشايه السفليه مع الجمهوريه,,فور يو,,,Direct Sales,Coca-Cola,Qualuob,Qualuob,DSP-الشيخ زايد 3,1,30.08022957,30.97680185,Cairo,
سلسله فرنش فرايزFRENCH FRIES,EG,الجمهوريه امام جامعه المنصوره,,قصر المرجان,,,Direct Sales,Coca-Cola,Qualuob,Qualuob,DSP-الشيخ زايد 3,1,30.08022957,30.97680185,Cairo,
سوسن,EG,مصطفي كامل تقاطع محمد سعيد متفرع من,,كوكب الشرق,,,Direct Sales,Coca-Cola,Qualuob,Qualuob,DSP-طرح البحر,1,31.270989280,32.301651010,Cairo,
فور يو,EG,متفرع من البحر الاعظم,,ماكولات نور الشام,,,Direct Sales,Coca-Cola,Qualuob,Qualuob,DSP-طرح البحر,1,31.270989280,32.301651010,Cairo,
قصر المرجان,EG,محي الدين ابو العرز من صلاح الدين,,مائده الحسنيه,,,Direct Sales,Coca-Cola,Qualuob,Qualuob,DSP-2 الهضبة الوسطى,1,29.98594500000010,31.33142100000000,Cairo,
كوكب الشرق,EG,ميدان سندوب,,مائده حاتي,,,Direct Sales,Coca-Cola,Qualuob,Qualuob,DSP-2 الهضبة الوسطى,1,29.98594500000010,31.33142100000000,Cairo,
ماكولات نور الشام,EG,محمود شاهين,,ماكولات نور الشام,,,Direct Sales,Coca-Cola,Qualuob,Qualuob,DSP-2 الهضبة الوسطى,1,29.98594500000010,31.33142100000000,Cairo,
مائده الحسنيه,EG,القاهره,,مائده الحسنيه,,2547897125797820,Direct Sales,Coca-Cola,Qualuob,Qualuob,DSP-2 الهضبة الوسطى,1,29.98594500000010,31.33142100000000,Cairo,
مائده حاتي,EG,صبري ابو علم,,مائده حاتي,,,Direct Sales,Coca-Cola,Qualuob,Qualuob,DSP-2 الهضبة الوسطى,1,29.98528700000000,31.33128600000000,Cairo,
مائده سراج,EG,الجمهوريه,,مائده سراج,,,Direct Sales,Coca-Cola,Qualuob,Qualuob,DSP-2 الهضبة الوسطى,1,29.98528700000000,31.33128600000000,Cairo,
مائده سيدنا الحسين,EG,صبري ابو علم سور المحطه امام موقف ا,,مائده سيدنا الحسين,,,Direct Sales,Coca-Cola,Qualuob,Qualuob,DSP-2 الهضبة الوسطى,1,29.98528700000000,31.33128600000000,Cairo,
مائده مصطفي,EG,صبري ابو علم سور المحطه امام موقف ا,,مائده مصطفي,,,Direct Sales,Coca-Cola,Qualuob,Qualuob,DSP-2 الهضبة الوسطى,1,29.98528700000000,31.33128600000000,Cairo,
محمد الذكي,EG,الثوره,,محمد الذكي,,87897125797820,Direct Sales,Coca-Cola,Qualuob,Qualuob,DSP-2 الهضبة الوسطى,1,29.98429400000000,31.33073600000010,Cairo,
مطعم,EG,الجمهوريه,,مطعم,,,Direct Sales,Coca-Cola,Qualuob,Qualuob,DSP-2 الهضبة الوسطى,1,29.98429400000000,31.33073600000010,Cairo,
مهراجا,EG,جيهان,,مهراجا,,,Direct Sales,Coca-Cola,Qualuob,Qualuob,DSP-منافذ منيل-شيحا,1,30.04333060000000,31.20168152000010,Cairo,
ناتشوز,EG,امام الموقف,,ناتشوز,,,Key Accounts,Coca-Cola,Qualuob,Qualuob,DSP-منافذ منيل-شيحا,1,30.04333060000000,31.20168152000010,Cairo,
ابراهيم اسماعيل,EG,الدراسات بانب صيدليه المصطفي,,ابراهيم اسماعيل,,,Direct Sales,Coca-Cola,Qualuob,Qualuob,DSP-منافذ منيل-شيحا,1,30.04470923000000,31.20158763000010,Cairo,
الكابتن شناوي,EG,الامام الاعظم امام قوات الامن,,الكابتن شناوي,,,Direct Sales,Coca-Cola,Qualuob,Qualuob,DSP-منافذ منيل-شيحا,1,30.04470923000000,31.20158763000010,Cairo,
سكر,EG,شرف الدين,,سكر,,47897125797820,Direct Sales,Coca-Cola,Qualuob,Qualuob,DSP-منافذ منيل-شيحا,1,30.04721395000010,31.19983839000000,Cairo,
PIPE,EG,الشعراوي,,PIPE,,,Direct Sales,Coca-Cola,Qualuob,Qualuob,DSP-منافذ منيل-شيحا,1,30.04721395000010,31.19983839000000,Cairo,
قريه القصرستار فيش,EG,طريق مصر اسكندريه الزراعي,,قريه القصرستار فيش,,,Direct Sales,Coca-Cola,Qualuob,Qualuob,DSP-منافذ منيل-شيحا,1,30.04478918000010,31.20027732000010,Cairo,
ادم بازار,EG,ش الحمامصي,,ادم بازار,,187897125797820,Direct Sales,Coca-Cola,Qualuob,Qualuob,DSP-منافذ منيل-شيحا,1,30.04478918000010,31.20027732000010,Cairo,
اسلام,EG,ام خنان,,اسلام,,,Direct Sales,Coca-Cola,Qualuob,Qualuob,DSP-منافذ منيل-شيحا,1,30.04478989000010,31.20275635000010,Cairo,
اسلام,EG,البحر,,اسلام,,,Direct Sales,Coca-Cola,Qualuob,Qualuob,DSP-منافذ منيل-شيحا,1,30.04478989000010,31.20275635000010,Cairo,
اسواق الحرمين,EG,جسر البحر,,اسواق الحرمين,,,Direct Sales,Coca-Cola,Qualuob,Qualuob,DSP-منافذ منيل-شيحا,1,30.04467552000010,31.20165684000010,Cairo,
الادهم,EG,طوخ دلكه,,الادهم,,47897125797820,Direct Sales,Coca-Cola,Qualuob,Qualuob,DSP-منافذ منيل-شيحا,1,30.04467552000010,31.20165684000010,Cairo,
الجندي,EG,تقاطع الجيش مع شرف الدين,,الجندي,,,Direct Sales,Coca-Cola,Qualuob,Qualuob,DSP-منافذ منيل-شيحا,1,30.04467090000000,31.20165558000010,Cairo,
الحاج حسن,EG,جسر البحر,,الحاج حسن,,,Direct Sales,Coca-Cola,Qualuob,Qualuob,DSP-منافذ منيل-شيحا,1,30.04467090000000,31.20165558000010,Cairo,
الزعيم,EG,الشارع العمومي,,الزعيم,,,Direct Sales,Coca-Cola,Qualuob,Qualuob,DSP-منافذ منيل-شيحا,1,30.04465949000010,31.20163605000000,Cairo,
العشماويمحمد العشماوي,EG,الدمياطي,,العشماويمحمد العشماوي,,,Direct Sales,Coca-Cola,Qualuob,Qualuob,DSP-منافذ منيل-شيحا,1,30.04465949000010,31.20163605000000,Cairo,
الوكيل,EG,ميت ابو الكوم,,الوكيل,,,Direct Sales,Coca-Cola,Qualuob,Qualuob,DSP-منافذ منيل-شيحا,1,30.04771508000000,31.19977314000000,Cairo,
اولاد قاسم,EG,ام خنان,,اولاد قاسم,,,Key Accounts,Coca-Cola,Qualuob,Qualuob,DSP-منافذ منيل-شيحا,1,30.04771508000000,31.19977314000000,Cairo,
جور,EG,الثانويه,,جور,,,Direct Sales,Coca-Cola,Qualuob,Qualuob,DSP-منافذ منيل-شيحا,1,30.04541,31.20374,Cairo,
حبيبه,EG,داير الناحيه,,حبيبه,,,Direct Sales,Coca-Cola,Qualuob,Qualuob,DSP-منافذ منيل-شيحا,1,30.04541,31.20374,Cairo,
دريم ماركت,EG,النادي,,دريم ماركت,,,Direct Sales,Coca-Cola,Qualuob,Qualuob,DSP-الاردنيه,1,29.99830000,30.9490500,Cairo,
رضا ابراهيمرضا الطحان,EG,الجلاء القبلي,,رضا ابراهيمرضا الطحان,,,Direct Sales,Coca-Cola,Qualuob,Qualuob,DSP-الاردنيه,1,29.99830000,30.9490500,Cairo,
زيزو,EG,البتانون,,زيزو,,,Direct Sales,Coca-Cola,Qualuob,Qualuob,DSP-الاردنيه,1,29.99683,30.95015,Cairo,
طيور الجنه,EG,طنبدي,,طيور الجنه,,,Direct Sales,Coca-Cola,Qualuob,Qualuob,DSP-الاردنيه,1,29.99683,30.95015,Cairo,
كوكي,EG,من المدارس,,كوكي,,,Direct Sales,Coca-Cola,Qualuob,Qualuob,DSP-البعوث,1,30.043342,31.266717,Cairo,
محمد اسامه,EG,النادي,,محمد اسامه,,,Direct Sales,Coca-Cola,Qualuob,Qualuob,DSP-البعوث,1,30.043342,31.266717,Cairo,
منه الله,EG,جمال الدين,,منه الله,,,Direct Sales,Coca-Cola,Qualuob,Qualuob,DSP-البعوث,1,30.043342,31.266717,Cairo,
TANTAWYطنطاوي,EG,المنشيه الاولي,,TANTAWYطنطاوي,,,Direct Sales,Coca-Cola,Qualuob,Qualuob,DSP-البعوث,1,30.043342,31.266717,Cairo,
ابو سمره,EG,محمود شاهين,,ابو سمره,,,Direct Sales,Coca-Cola,Qualuob,Qualuob,DSP-البعوث,1,30.043342,31.266717,Cairo,
ابو عميره,EG,الجيش,,ابو عميره,,,Direct Sales,Coca-Cola,Qualuob,Qualuob,DSP-البعوث,1,30.043342,31.266717,Cairo,
النشار,EG,الجيش,,النشار,,,Direct Sales,Coca-Cola,Qualuob,Qualuob,DSP-البعوث,1,30.043342,31.266717,Cairo,
عثمان,EG,جمال عبد الناصر,,عثمان,,,Direct Sales,Coca-Cola,Qualuob,Qualuob,DSP-البعوث,1,30.043342,31.266717,Cairo,
كافيتريا الميدان,EG,الجيش بجوار مسجد نور الاسلام,,كافيتريا الميدان,987123654,,Direct Sales,Coca-Cola,Qualuob,Qualuob,DSP-البعوث,1,30.043342,31.266717,Cairo,
كريفنوه,EG,عاطف السادات,,كريفنوه,,,Direct Sales,Coca-Cola,Qualuob,Qualuob,DSP-البعوث,1,30.043342,31.266717,Cairo,
ليالي الشرف,EG,الموقف الجديد,,ليالي الشرف,,,Direct Sales,Coca-Cola,Qualuob,Qualuob,DSP-البعوث,1,30.043342,31.266717,Cairo,
مطعم الايمان,EG,احمد عبدالعزيز,,مطعم الايمان,,,Direct Sales,Coca-Cola,Qualuob,Qualuob,DSP-البعوث,1,30.043342,31.266717,Cairo,
مصطفي فؤاد,EG,المساكن,,مصطفي فؤاد,,,Direct Sales,Coca-Cola,Qualuob,Qualuob,DSP-البعوث,1,30.043342,31.266717,Cairo,
كشك,EG,الناصيه,,كشك,,,Direct Sales,Coca-Cola,Qualuob,Qualuob,DSP-البعوث,1,30.043342,31.266717,Cairo,
كشك,EG,ش المدرسه,,ابو سمره,,,Direct Sales,Coca-Cola,Qualuob,Qualuob,TELES-Central Cairo,1,30.04229836,31.26595495,Cairo,
فوزي محمد,EG,ش اسكاروس,,ابو عميره,,,Direct Sales,Coca-Cola,Qualuob,Qualuob,TELES-Manyal Shiha,1,30.05339351,31.22449482,Cairo,
الاورمان,EG,مدرسه غمرين,,النشار,,,Direct Sales,Coca-Cola,Qualuob,Qualuob,DSP-منافذ منيل-شيحا,1,30.05356,31.22317,Cairo,
مصطفي مدحت,EG,شنوان,,عثمان,,,Direct Sales,Coca-Cola,Qualuob,Qualuob,DSP-منافذ منيل-شيحا,1,30.05356,31.22317,Cairo,
الاورمان,EG,العمومي,,كافيتريا الميدان,,,Direct Sales,Coca-Cola,Qualuob,Qualuob,DSP-منافذ منيل-شيحا,1,30.05334884000010,31.22351875000000,Cairo,
صلاح عبد السلم منصور,EG,سعد زغلول,,كريفنوه,,,Direct Sales,Coca-Cola,Qualuob,Qualuob,DSP-منافذ منيل-شيحا,1,30.05334884000010,31.22351875000000,Cairo,
وادي الملوك,EG,طريق مصر اسكندريه الزراعي,,ليالي الشرف,,,Direct Sales,Coca-Cola,Qualuob,Qualuob,DSP-منافذ منيل-شيحا,1,30.05267689000000,31.22349346000000,Cairo,
السعد تساهيل,EG,طريق مصر اسوان,,مطعم الايمان,,,Direct Sales,Coca-Cola,Qualuob,Qualuob,DSP-منافذ منيل-شيحا,1,30.05267689000000,31.22349346000000,Cairo,
حكايه,EG,ميدان السكه,,مصطفي فؤاد,,,Direct Sales,Coca-Cola,Qualuob,Qualuob,DSP-منافذ منيل-شيحا,1,30.05401796000010,31.22561348000000,Cairo,
علي بابا,EG,مساكن الشرون,,كشك,,,Direct Sales,Coca-Cola,Qualuob,Qualuob,DSP-منافذ منيل-شيحا,1,30.05401796000010,31.22561348000000,Cairo,
دبي كافيه,EG,مصنع الغزل,,كشك,,,Direct Sales,Coca-Cola,Qualuob,Qualuob,DSP-منافذ منيل-شيحا,1,30.05363168000000,31.22513832000000,Cairo,
الشيشيالشيشه بحيره,EG,23 يوليو,,فوزي محمد,,,Direct Sales,Coca-Cola,Qualuob,Qualuob,DSP-منافذ منيل-شيحا,1,30.05363168000000,31.22513832000000,Cairo,
الحسن والحسين,EG,الاقصر,,الاورمان,,,Direct Sales,Coca-Cola,Qualuob,Qualuob,DSP-منافذ منيل-شيحا,1,30.05403703000010,31.22559622000010,Cairo,
بسمه,EG,الاقصر,,بسمه,,,Direct Sales,Coca-Cola,Qualuob,Qualuob,DSP-منافذ منيل-شيحا,1,30.05403703000010,31.22559622000010,Cairo,
مزاج الخير,EG,ش العارف الله همام,,مزاج الخير,,,Direct Sales,Coca-Cola,Qualuob,Qualuob,DSP-الشروق 1,1,30.08580713,31.47797912,Cairo,
شاورما الشام,EG,دندره,,شاورما الشام,,,Direct Sales,Coca-Cola,Qualuob,Qualuob,DSP-الشروق 1,1,30.08580713,31.47797912,Cairo,
بيج برجر,EG,دندره,,بيج برجر,987123654,,Direct Sales,Coca-Cola,Qualuob,Qualuob,DSP-الفسطاط,1,30.00494212000010,31.25363848000010,Cairo,
ميلاد بيتزا,EG,دندره,,ميلاد بيتزا,,,Direct Sales,Coca-Cola,Qualuob,Qualuob,DSP-ابو رواش,1,30.00714470000000,31.06595230000000,Cairo,
رجبالحبيب,EG,الجبلاوي,,رجبالحبيب,,,Direct Sales,Coca-Cola,Qualuob,Qualuob,DSP-ابو رواش,1,30.00714470000000,31.06595230000000,Cairo,
كارفور النجمي,EG,السادات,,كارفور النجمي,,,Key Accounts,Coca-Cola,Qualuob,Qualuob,DSP-1 الجونة,1,27.437789,33.655272,Cairo,
دسوقي,EG,حسني مبارك,,دسوقي,,,Direct Sales,Coca-Cola,Qualuob,Qualuob,DSP-1 الجونة,1,27.437789,33.655272,Cairo,
الموشياولاد عنبه,EG,عماره الاوقاف,,الموشياولاد عنبه,,,Direct Sales,Coca-Cola,Qualuob,Qualuob,DSP-طرح البحر,1,31.269637590,32.311176970,Cairo,
احلي صباح,EG,مبارك,,احلي صباح,,,Direct Sales,Coca-Cola,Qualuob,Qualuob,DSP-طرح البحر,1,31.269637590,32.311176970,Cairo,
ORINTEL HOUSE,EG,مبارك,,ORINTEL HOUSE,,,Direct Sales,Coca-Cola,Qualuob,Qualuob,DSC-المطار بورسعيد,1,31.274308180,32.266005140,Cairo,
العزومي فول,EG,ط برج العرب العامريه,,العزومي فول,,,Direct Sales,Coca-Cola,Qualuob,Qualuob,DSC-المطار بورسعيد,1,31.274308180,32.266005140,Cairo,
الجهيني,EG,الطريق الدساحلي الدولي,,الجهيني,,,Direct Sales,Coca-Cola,Qualuob,Qualuob,DSC-المروة الجديدة,1,31.259051500,32.269098230,Cairo,
ابراهيم يوسف,EG,المحطه,,ابراهيم يوسف,,,Direct Sales,Coca-Cola,Qualuob,Qualuob,DSC-المروة الجديدة,1,31.259051500,32.269098230,Cairo,
ابو حماده,EG,قريه الكرنك - النهضه,,ابو حماده,,,Direct Sales,Coca-Cola,Qualuob,Qualuob,TELES-Heliopolis,1,30.01887046,31.42171141,Cairo,
مربوعه القلعاوي,EG,البيطاش,,مربوعه القلعاوي,,,Direct Sales,Coca-Cola,Qualuob,Qualuob,TELES-Maadi,1,29.95473385,31.26214299,Cairo,
الامل,EG,الشيخ طموم,,الامل,,,Direct Sales,Coca-Cola,Qualuob,Qualuob,TELES-Heliopolis,1,30.0858881,31.34773698,Cairo,
الركن الدمشقي,EG,ش59 بجوار مستشفي برج العرب,,الركن الدمشقي,,,Direct Sales,Coca-Cola,Qualuob,Qualuob,TELES-East Cairo 2,1,30.01790016,31.41179231,Cairo,
ابو عطا,EG,مدخل بهيج,,ابو عطا,,,Direct Sales,Coca-Cola,Qualuob,Qualuob,TELES-Heliopolis,1,30.10436699,31.3720761,Cairo,
ابو عبد الله,EG,الرست هاوس,,ابو عبد الله,,,Direct Sales,Coca-Cola,Qualuob,Qualuob,TELES-October,1,30.00041207,31.11447931,Cairo,
كلوا من طيبات مارزقناكمسندس محمود,EG,مساكن النيل والكباري,,كلوا من طيبات مارزقناكمسن,,,Direct Sales,Coca-Cola,Qualuob,Qualuob,TELES-East Cairo,1,29.98675108,31.43815667,Cairo,
ناصر,EG,الدوار,,ناصر,,,Direct Sales,Coca-Cola,Qualuob,Qualuob,TELES-Manyal Shiha,1,30.056984172,31.190828017,Cairo,
البصير,EG,الجامع الكبير,,البصير,,,Direct Sales,Coca-Cola,Qualuob,Qualuob,TELES-Amria,1,31.2412276,29.9573568,Cairo,
هند,EG,طريق النصر,,هند,,,Direct Sales,Coca-Cola,Qualuob,Qualuob,TELES-Amria,1,31.23053953,29.94262563,Cairo,
انس الدمشقي للماكولات السوريه,EG,طريق النصر من شارع النزهه,,انس الدمشقي للماكولات الس,,,Direct Sales,Coca-Cola,Qualuob,Qualuob,TELES-Amria,1,31.19806781,29.90347424,Cairo,
CHEZENY,EG,داخل جنينه مول,,CHEZENY,,,Direct Sales,Coca-Cola,Qualuob,Qualuob,TELES-Sahel 2,1,31.39294346,27.06440469,Cairo,
اولاد وهدانحضر موت,EG,النصر,,اولاد وهدانحضر موت,,,Direct Sales,Coca-Cola,Qualuob,Qualuob,TELES-Amria,1,31.26569151,29.99734027,Cairo,
HADRAMOUTحضر موت,EG,السوق التجاري مدينه الرحاب,,HADRAMOUTحضر موت,,,Direct Sales,Coca-Cola,Qualuob,Qualuob,DSP-1 الجونة,1,27.39510632000000,33.67519245700000,Cairo,
JOS CAFE,EG,داخل المول الدور الثالث,,JOS CAFE,,,Direct Sales,Coca-Cola,Qualuob,Qualuob,DSP-1 الجونة,1,27.39510632000000,33.67519245700000,Cairo,
جست واكJUST WOK,EG,ش حسن مامون,,جست واكJUST WOK,,,Direct Sales,Coca-Cola,Qualuob,Qualuob,DSP-1 الجونة,1,27.39567497000010,33.67521670100010,Cairo,
KAZZEM,EG,ش علي يوسف,,KAZZEM,,,Direct Sales,Coca-Cola,Qualuob,Qualuob,DSP-1 الجونة,1,27.39567497000010,33.67521670100010,Cairo,
LATINO'S,EG,امام جامعه المستقبل ش التسعين,,LATINO'S,,,Direct Sales,Coca-Cola,Qualuob,Qualuob,TELES-Hurghada,1,27.206846,33.770764,Cairo,
LE PLATEAU,EG,منطقه مطاعم الرحاب,,LE PLATEAU,,,Direct Sales,Coca-Cola,Qualuob,Qualuob,DSP-مارينا,1,27.91015841,34.32312363,Cairo,
LETS MAX,EG,جنينه مول,,LETS MAX,,,Direct Sales,Coca-Cola,Qualuob,Qualuob,DSP-مارينا,1,27.91015841,34.32312363,Cairo,
MIKCAP,EG,ش1,,MIKCAP,,,Direct Sales,Coca-Cola,Qualuob,Qualuob,TELES-Heliopolis,1,30.091450721,31.343659629,Cairo,
وافل ميكر,EG,السوق التجاري- مدينه الرحاب,,وافل ميكر,,,Direct Sales,Coca-Cola,Qualuob,Qualuob,TELES-Manyal Shiha,1,30.0418919,31.20377313,Cairo,
NILE,EG,الامام ابو حنيفه,,NILE,,,Direct Sales,Coca-Cola,Qualuob,Qualuob,TELES-October,1,30.02063164,31.070980062,Cairo,
بريموس بيتزاPRIMO'S PIZZA,EG,مصطفي النحاس,,بريموس بيتزاPRIMO'S PIZZA,,,Direct Sales,Coca-Cola,Qualuob,Qualuob,TELES-Heliopolis,1,30.0903744,31.32367429,Cairo,
ROYAL TAMDOR,EG,مول ريفروول,,ROYAL TAMDOR,,,Direct Sales,Coca-Cola,Qualuob,Qualuob,TELES-Heliopolis,1,30.07456303,31.34539121,Cairo,
PIZZA SLICE,EG,ش حسن مامون,,PIZZA SLICE,,,Direct Sales,Coca-Cola,Qualuob,Qualuob,TELES-Heliopolis,1,30.08059073,31.3640925,Cairo,
SPICA,EG,جنينه مول,,SPICA,,,Direct Sales,Coca-Cola,Qualuob,Qualuob,TELES-East Cairo,1,30.01956138,31.49495709,Cairo,
ابن البلد,EG,خلف دار المصطفي,,ابن البلد,,,Direct Sales,Coca-Cola,Qualuob,Qualuob,TELES-East Cairo 2,1,30.02994206,31.40977523,Cairo,
احمد,EG,الطريق الساحلي الدولي,,احمد,,,Direct Sales,Coca-Cola,Qualuob,Qualuob,TELES-East Cairo,1,30.01693862,31.41296684,Cairo,
س م الرحاب,EG,عبد الحميد رضوان متفرع من قريه هاله,,س م الرحاب,,,Direct Sales,Coca-Cola,Qualuob,Qualuob,TELES-Manyal Shiha,1,30.05550921,31.20003797,Cairo,
البشوات,EG,البحر,,البشوات,,,Direct Sales,Coca-Cola,Qualuob,Qualuob,TELES-October,1,29.97133518,31.01632533,Cairo,
الشامي,EG,المكس,,الشامي,,,Direct Sales,Coca-Cola,Qualuob,Qualuob,TELES-October,1,30.00509073,30.97145947,Cairo,
كشك سعيد مالبورو,EG,الاسناوي,,كشك سعيد مالبورو,,,Direct Sales,Coca-Cola,Qualuob,Qualuob,DSC-السياله,1,31.20787126400010,29.87946778300010,Cairo,
ام احمد,EG,ش الامير لؤلؤ,,ام احمد,,,Direct Sales,Coca-Cola,Qualuob,Qualuob,DSC-السياله,1,31.20787126400010,29.87946778300010,Cairo,
ابو ياسين,EG,موقف العاشر الجديد,,ابو ياسين,,,Direct Sales,Coca-Cola,Qualuob,Qualuob,TELES-Maadi,1,29.84744908,31.33136316,Cairo,
جراند كافيهGRAND CAFE,EG,مركز الحسن التجاريي,,جراند كافيهGRAND CAFE,,,Direct Sales,Coca-Cola,Qualuob,Qualuob,TELES-Sahel 1,1,30.979116999999999,28.756592999999999,Cairo,
زمزم,EG,الحسين بن علي,,زمزم,,,Direct Sales,Coca-Cola,Qualuob,Qualuob,TELES-Sahel 1,1,30.82610425,28.98351605,Cairo,
سلسله كوستا كافيهCOSTA CAFÉ,EG,جولف سيتي العبور الدور الارضي,,سلسله كوستا كافيهCOSTA CA,,,Direct Sales,Coca-Cola,Qualuob,Qualuob,TELES-East Cairo 2,1,30.018513,31.419656,Cairo,
الخليلي,EG,مساكن اسيكو,,الخليلي,,,Direct Sales,Coca-Cola,Qualuob,Qualuob,TELES-Heliopolis,1,30.10197258,31.34650867,Cairo,
تياTIA,EG,جولف سيتي مول,,تياTIA,,,Direct Sales,Coca-Cola,Qualuob,Qualuob,TELES-Heliopolis,1,30.08881679,31.31459444,Cairo,
مصر الحره,EG,ش 163 بجوار مركز شباب العبور,,مصر الحره,,,Direct Sales,Coca-Cola,Qualuob,Qualuob,TELES-Heliopolis,1,30.10182988,31.34651543,Cairo,
الحسن والحسينابراهيم عرف بدر الدينم,EG,البنزينه,,الحسن والحسينابراهيم عرف,,,Direct Sales,Coca-Cola,Qualuob,Qualuob,TELES-East Cairo 2,1,30.017675,31.412038,Cairo,
المتوكل علي الله,EG,المعاهد,,المتوكل علي الله,,,Direct Sales,Coca-Cola,Qualuob,Qualuob,TELES-East Cairo,1,30.0665484,31.49344133,Cairo,
سعيد صقر,EG,سعيد صقر,,سعيد صقر,,,Direct Sales,Coca-Cola,Qualuob,Qualuob,TELES-Maadi,1,29.97275206,31.27204685,Cairo,
البان الرحمه,EG,ترعه التوفيقيه,,البان الرحمه,,,Direct Sales,Coca-Cola,Qualuob,Qualuob,TELES-Maadi,1,29.99101,31.26116,Cairo,
السوهاجي,EG,الحريه,,السوهاجي,,,Direct Sales,Coca-Cola,Qualuob,Qualuob,TELES-Manyal Shiha,1,30.04439765,31.19662118,Cairo,
الراعي الصالح,EG,الشيخ منصور,,الراعي الصالح,,,Direct Sales,Coca-Cola,Qualuob,Qualuob,TELES-October,1,30.02015098,31.00236711,Cairo,
نادر سيد عبد العال,EG,6اكتوبر,,نادر سيد عبد العال,,,Direct Sales,Coca-Cola,Qualuob,Qualuob,TELES-Sahel 1,1,30.8226509204796,29.0010523593783,Cairo,
اولاد حميده,EG,احمد عيسي,,اولاد حميده,,,Direct Sales,Coca-Cola,Qualuob,Qualuob,DSP-العين السخنة,1,29.444495,32.4809716666666,Cairo,
احلي كلام,EG,عبد الله باشا,,احلي كلام,,,Key Accounts,Coca-Cola,Qualuob,Qualuob,DSP-العين السخنة,1,29.444495,32.4809716666666,Cairo,
مكاني و مكانكمحمد مجدي,EG,احمد فكري,,مكاني و مكانكمحمد مجدي,,,Direct Sales,Coca-Cola,Qualuob,Qualuob,TELES-Heliopolis,1,30.0853058700788,31.3379713141102,Cairo,
الاجيال,EG,بقطر,,الاجيال,,,Direct Sales,Coca-Cola,Qualuob,Qualuob,TELES-Manyal Shiha,1,30.048264727249,31.2280851450697,Cairo,
الشيماء,EG,ش الجسر,,الشيماء,,,Direct Sales,Coca-Cola,Qualuob,Qualuob,TELES-Maadi,1,29.96993447,31.27501496,Cairo,
البركه,EG,السيد البدوي,,البركه,,,Direct Sales,Coca-Cola,Qualuob,Qualuob,TELES-October,1,30.01640855,31.00133823,Cairo,
كامل محمود,EG,المشروع متفرع من ش المحطه,,كامل محمود,,,Direct Sales,Coca-Cola,Qualuob,Qualuob,DSP-1 الجونة,1,27.40814264400010,33.67485638300010,Cairo,
مكه,EG,محمد فريد,,مكه,,,Direct Sales,Coca-Cola,Qualuob,Qualuob,DSP-1 الجونة,1,27.40814264400010,33.67485638300010,Cairo,
الصالحين,EG,الشيخ منصور,,الصالحين,,,Direct Sales,Coca-Cola,Qualuob,Qualuob,TELES-East Cairo 2,1,30.089899,31.328809,Cairo,
ابو طارق,EG,السيد علي من المطريه,,ابو طارق,,,Direct Sales,Coca-Cola,Qualuob,Qualuob,TELES-Heliopolis,1,30.08993525,31.32315548,Cairo,
محمصات المصطفي,EG,عرب الطوايله,,محمصات المصطفي,,,Direct Sales,Coca-Cola,Qualuob,Qualuob,DSP-العين السخنة,1,29.10146974,32.65088597,Cairo,
ولاد البلد,EG,الترعه التوفيقيه,,ولاد البلد,,,Direct Sales,Coca-Cola,Qualuob,Qualuob,DSP-العين السخنة,1,29.10146974,32.65088597,Cairo,
سالم علي الله,EG,خالد بن الوليد,,سالم علي الله,,,Direct Sales,Coca-Cola,Qualuob,Qualuob,TELES-East Cairo 2,1,30.1075822,31.5621071,Cairo,
ايسل و صباناصر ابو عمرو,EG,محمد الجناوي,,ايسل و صباناصر ابو عمرو,,,Direct Sales,Coca-Cola,Qualuob,Qualuob,TELES-East Cairo 2,1,30.00358765,31.42098422,Cairo,
كشك,EG,6اكتوبر,,كشك,,,Direct Sales,Coca-Cola,Qualuob,Qualuob,DSP-العين السخنة,1,29.454808,32.474315,Cairo,
الكابتن,EG,المركز الاجتماعي,,الكابتن,,,Direct Sales,Coca-Cola,Qualuob,Qualuob,DSP-العين السخنة,1,29.454808,32.474315,Cairo,
القرشي,EG,عين شمس,,القرشي,,,Direct Sales,Coca-Cola,Qualuob,Qualuob,DSP-العين السخنة,1,29.77056000000000,32.41453333300010,Cairo,
اولاد البلد,EG,الشيخ,,اولاد البلد,,,Direct Sales,Coca-Cola,Qualuob,Qualuob,DSP-العين السخنة,1,29.77056000000000,32.41453333300010,Cairo,
مقهي الضبع,EG,محمود الجندي بجوار سامي سلام,,مقهي الضبع,,,Direct Sales,Coca-Cola,Qualuob,Qualuob,TELES-Amria,1,31.161811,29.8882037,Cairo,
البرادعي,EG,بخيت خليفه,,البرادعي,,,Direct Sales,Coca-Cola,Qualuob,Qualuob,DSP-العين السخنة,1,29.5544037921354,32.3617882747203,Cairo,
البرنسسامح الصياد,EG,الطريق الدائري,,البرنسسامح الصياد,,,Direct Sales,Coca-Cola,Qualuob,Qualuob,DSP-العين السخنة,1,29.5544037921354,32.3617882747203,Cairo,
العبور,EG,مسجد الرحمن,,العبور,,,Direct Sales,Coca-Cola,Qualuob,Qualuob,DSC-قطامية,1,29.97277112600010,31.38754199300010,Cairo,
رمضان عرابي,EG,التروللي,,رمضان عرابي,,,Direct Sales,Coca-Cola,Qualuob,Qualuob,DSC-قطامية,1,29.97277112600010,31.38754199300010,Cairo,
المستقبل,EG,حمدي الموان - مدرسه المحبه,,المستقبل,,,Direct Sales,Coca-Cola,Qualuob,Qualuob,TELES-Heliopolis,1,30.09094056,31.32355173,Cairo,
مكتبه الطالب,EG,شارع شلهوب,,مكتبه الطالب,,,Direct Sales,Coca-Cola,Qualuob,Qualuob,TELES-Sahel 1,1,30.82412300000000,29.02763600000000,Cairo,
هند,EG,عين شمس,,هند,,,Direct Sales,Coca-Cola,Qualuob,Qualuob,DSP-الدخيلة,1,31.14435565,29.8349446,Cairo,
الزعيم,EG,منشيه التحرير,,الزعيم,,,Direct Sales,Coca-Cola,Qualuob,Qualuob,DSP-الدخيلة,1,31.14435565,29.8349446,Cairo,
الضبع ابناء اسيوط,EG,الوحده العربيه,,الضبع ابناء اسيوط,,,Direct Sales,Coca-Cola,Qualuob,Qualuob,TELES-October,1,30.00653266,30.97381579,Cairo,
مؤمن,EG,المركز الاجتماعي,,مؤمن,,,Direct Sales,Coca-Cola,Qualuob,Qualuob,TELES-East Cairo 2,1,30.02806599,31.40760202,Cairo,
شكري عبدالعزيز,EG,الحريه,,شكري عبدالعزيز,,,Direct Sales,Coca-Cola,Qualuob,Qualuob,TELES-Manyal Shiha,1,30.05055008,31.2008293,Cairo,
ابو عمار الحاج السيد,EG,مؤسسه الزكاه,,ابو عمار الحاج السيد,,,Direct Sales,Coca-Cola,Qualuob,Qualuob,TELES-Amria,1,31.19897338,29.91753561,Cairo,
جراند كافيه,EG,الممشي,,جراند كافيه,,,Direct Sales,Coca-Cola,Qualuob,Qualuob,TELES-Amria,1,31.2337057,29.94714505,Cairo,
PARIS CAFIE,EG,الشيراتون,,PARIS CAFIE,,,Direct Sales,Coca-Cola,Qualuob,Qualuob,TELES-Amria,1,31.28714957,30.03102862,Cairo,
وايفز,EG,ش الممشي,,وايفز,,,Direct Sales,Coca-Cola,Qualuob,Qualuob,TELES-Amria,1,31.24490066,29.96734104,Cairo,
كوفي شوب,EG,داخل المول,,كوفي شوب,,,Direct Sales,Coca-Cola,Qualuob,Qualuob,DSP- صقر قريش-معادى,1,29.98778738,31.2766258410001,Cairo,
راندفو,EG,الشيراتون,,راندفو,,,Direct Sales,Coca-Cola,Qualuob,Qualuob,DSP- صقر قريش-معادى,1,29.98778738,31.2766258410001,Cairo,
الدكتور,EG,الكورنيش,,الدكتور,,,Direct Sales,Coca-Cola,Qualuob,Qualuob,TELES-Heliopolis,1,30.0185794,31.41234085,Cairo,
استراحه,EG,الجيل الصاعد,,استراحه,,,Direct Sales,Coca-Cola,Qualuob,Qualuob,DSP-ش شبرا,1,30.09322440100000,31.24547195800010,Cairo,
DAPORT,EG,ابو تيج مارينا,,DAPORT,,,Direct Sales,Coca-Cola,Qualuob,Qualuob,DSP-ش شبرا,1,30.09322440100000,31.24547195800010,Cairo,
محمود صالح ويدان,EG,حاره السماحي,,محمود صالح ويدان,,,Direct Sales,Coca-Cola,Qualuob,Qualuob,DSP-1 الجونة,1,27.40890035300000,33.67530669700010,Cairo,
اسواق الغلبان,EG,الري متفرع من ش شبرا,,اسواق الغلبان,,,Direct Sales,Coca-Cola,Qualuob,Qualuob,DSP-1 الجونة,1,27.40890035300000,33.67530669700010,Cairo,
كريمسCREAMS,EG,ش المستشفي,,كريمسCREAMS,,,Direct Sales,Coca-Cola,Qualuob,Qualuob,TELES-Maadi,1,29.97123773,31.31829256,Cairo,
ابو يوسف,EG,شارع المقسي تقاطع شبرا,,ابو يوسف,,,Direct Sales,Coca-Cola,Qualuob,Qualuob,TELES-Maadi,1,30.01495779,31.24119365,Cairo,
السندباد,EG,نصر الدين,,السندباد,,,Direct Sales,Coca-Cola,Qualuob,Qualuob,TELES-Heliopolis,1,30.07847973,31.34739281,Cairo,
حمدي,EG,احمد عيسوي من ش مصر و السودان,,حمدي,,,Direct Sales,Coca-Cola,Qualuob,Qualuob,TELES-East Cairo,1,30.038293,31.4753169,Cairo,
دهبيه,EG,البعثه من ش شبرا,,دهبيه,,,Direct Sales,Coca-Cola,Qualuob,Qualuob,DSP-الحى المتميز,1,29.99301855,30.96534473,Cairo,
بركات السوري,EG,شركات البترول,,بركات السوري,,,Direct Sales,Coca-Cola,Qualuob,Qualuob,DSP-الحى المتميز,1,29.99301855,30.96534473,Cairo,
ابو ضيف,EG,قدسي,,ابو ضيف,,,Direct Sales,Coca-Cola,Qualuob,Qualuob,TELES-Manyal Shiha,1,30.05659201,31.20854526,Cairo,
ابو مازن,EG,شبرا,,ابو مازن,,,Direct Sales,Coca-Cola,Qualuob,Qualuob,TELES-October,1,30.02617921,31.01233673,Cairo,
المعلم,EG,ابراهيم حسنين,,المعلم,,,Direct Sales,Coca-Cola,Qualuob,Qualuob,DSC-محمد علي,1,31.26161,32.3102,Cairo,
قهوه السلام,EG,ابن الرشيد من ش مسره,,قهوه السلام,,,Direct Sales,Coca-Cola,Qualuob,Qualuob,DSC-محمد علي,1,31.26161,32.3102,Cairo,
بكار مانا,EG,جزيره بدران,,بكار مانا,,,Direct Sales,Coca-Cola,Qualuob,Qualuob,DSP-1 الجونة,1,27.39536973100010,33.67536435900010,Cairo,
كوفي مودرن,EG,شارع سبرا داخل مول سيتي مودرن,,كوفي مودرن,,,Direct Sales,Coca-Cola,Qualuob,Qualuob,DSP-1 الجونة,1,27.39536973100010,33.67536435900010,Cairo,
العمده,EG,العزب,,العمده,,,Direct Sales,Coca-Cola,Qualuob,Qualuob,DSP-1 الجونة,1,27.39543032800000,33.67540053000000,Cairo,
بوفيه قبلي,EG,مدخل الدرجه التانيه رصيف 11,,بوفيه قبلي,,,Direct Sales,Coca-Cola,Qualuob,Qualuob,DSP-1 الجونة,1,27.39543032800000,33.67540053000000,Cairo,
شربات,EG,المستشفي والترعه البولاقيه,,شربات,,,Direct Sales,Coca-Cola,Qualuob,Qualuob,DSP-1 الجونة,1,27.395454,33.672786,Cairo,
مكتبه نانا,EG,شبرا,,مكتبه نانا,,,Direct Sales,Coca-Cola,Qualuob,Qualuob,DSP-1 الجونة,1,27.395454,33.672786,Cairo,
مقله النصر,EG,منشيه الجمل من ترعه الجلاء,,مقله النصر,,,Direct Sales,Coca-Cola,Qualuob,Qualuob,DSC-ادمون,1,31.034697,30.454212,Cairo,
بيبسي,EG,ابراهيم شلبي,,بيبسي,,,Direct Sales,Coca-Cola,Qualuob,Qualuob,TELES-Heliopolis,1,30.08786297,31.34413562,Cairo,
القصر,EG,المطريه,,القصر,,,Direct Sales,Coca-Cola,Qualuob,Qualuob,DSC-السياله,1,31.20666231000010,29.88203579700010,Cairo,
ابن البلد,EG,ش الامام الباجوري,,ابن البلد,,,Direct Sales,Coca-Cola,Qualuob,Qualuob,TELES-Heliopolis,1,30.02044585,31.49567193,Cairo,
عبدالله,EG,جسر البحر,,عبدالله,,,Key Accounts,Coca-Cola,Qualuob,Qualuob,TELES-Heliopolis,1,30.07848178,31.34755517,Cairo,
بقاله عباس,EG,شارع كنانه,,بقاله عباس,,,Direct Sales,Coca-Cola,Qualuob,Qualuob,TELES-Heliopolis,1,30.08190254,31.3639396,Cairo,
حسن ابو جمعه,EG,طريق شبين القناطر الاحراز,,حسن ابو جمعه,,,Direct Sales,Coca-Cola,Qualuob,Qualuob,TELES-East Cairo 2,1,30.031602,30.999648,Cairo,
حنفي جزر,EG,عرب العليقات,,حنفي جزر,,,Direct Sales,Coca-Cola,Qualuob,Qualuob,TELES-East Cairo,1,30.02815426,31.40849683,Cairo,
سعد يوسف,EG,سوق الجمعه,,سعد يوسف,,,Direct Sales,Coca-Cola,Qualuob,Qualuob,TELES-Maadi,1,29.95091426,31.26656479,Cairo,
محروس ابراهيم,EG,الوحده المحليه,,محروس ابراهيم,,,Direct Sales,Coca-Cola,Qualuob,Qualuob,TELES-Mansora,1,30.80990594,30.99400814,Cairo,
السلام,EG,الزراعه,,السلام,,,Key Accounts,Coca-Cola,Qualuob,Qualuob,TELES-Manyal Shiha,1,30.06137411,31.2196219,Cairo,
ويك اند,EG,مول العابد الدور الارضي,,ويك اند,,,Direct Sales,Coca-Cola,Qualuob,Qualuob,TELES-October,1,29.96956,31.018902,Cairo,
بقاله,EG,الموقف,,بقاله,,,Direct Sales,Coca-Cola,Qualuob,Qualuob,TELES-October,1,29.97407826,31.01447117,Cairo,
محمصات المدينه,EG,نزله منشيه القناطر,,محمصات المدينه,,,Direct Sales,Coca-Cola,Qualuob,Qualuob,TELES-Heliopolis,1,30.08598344,31.34760885,Cairo,
ابو رقيه,EG,من الكنيسه,,ابو رقيه,,,Direct Sales,Coca-Cola,Qualuob,Qualuob,TELES-Sahel 1,1,31.012313,28.606296,Cairo,
عماد صواني,EG,المؤسسه,,عماد صواني,,,Direct Sales,Coca-Cola,Qualuob,Qualuob,TELES-East Cairo 2,1,30.01988405,31.49537939,Cairo,
كريم,EG,الرشاح,,كريم,,,Direct Sales,Coca-Cola,Qualuob,Qualuob,DSP-السقالة,1,27.19649036200010,33.84218216300010,Cairo,
احمد صبحي,EG,مصر الاسماعليه,,احمد صبحي,,,Direct Sales,Coca-Cola,Qualuob,Qualuob,DSP-السقالة,1,27.19649036200010,33.84218216300010,Cairo,
ابو حمزه,EG,درب الزاويه,,ابو حمزه,,,Direct Sales,Coca-Cola,Qualuob,Qualuob,DSP-1 الجونة,1,27.39668725400000,33.67619833600000,Cairo,
مقله بسمله وجني,EG,شارع العمار,,مقله بسمله وجني,,,Direct Sales,Coca-Cola,Qualuob,Qualuob,DSP-1 الجونة,1,27.39668725400000,33.67619833600000,Cairo,
العمده,EG,عقبه بن نافع,,العمده,,,Direct Sales,Coca-Cola,Qualuob,Qualuob,TELES-October,1,30.02015781,31.0035321,Cairo,
سليمان الرهوانالشيخ,EG,عزاز,,سليمان الرهوانالشيخ,,,Direct Sales,Coca-Cola,Qualuob,Qualuob,TELES-Sahel 1,1,30.9669767,28.7453054,Cairo,
باشا,EG,15 مايو,,باشا,,,Direct Sales,Coca-Cola,Qualuob,Qualuob,TELES-Sahel 1,1,30.967852000000001,28.745044,Cairo,
مطعم ابو علي,EG,طريق القناطر الخيريه,,مطعم ابو علي,,,Direct Sales,Coca-Cola,Qualuob,Qualuob,TELES-Sahel 1,1,30.965437000000001,28.749306000000001,Cairo,
ابو مازن,EG,الموقف,,ابو مازن,,,Direct Sales,Coca-Cola,Qualuob,Qualuob,TELES-Sahel 1,1,30.971425,28.737946999999998,Cairo,
مقهي العمده,EG,مساكن للتمليك,,مقهي العمده,,,Direct Sales,Coca-Cola,Qualuob,Qualuob,TELES-Sahel 1,1,31.009219999999999,28.604310000000002,Cairo,
الجزيره,EG,طريق بيجام,,الجزيره,,,Direct Sales,Coca-Cola,Qualuob,Qualuob,TELES-Sahel 1,1,30.83375500000010,28.96184600000000,Cairo,
الحنفي,EG,الوحده,,الحنفي,,,Direct Sales,Coca-Cola,Qualuob,Qualuob,LKA-الساحل,1,30.97047399000010,28.73879949000010,Cairo,
مكاني AMA,EG,المدرسه,,مكاني AMA,,,Direct Sales,Coca-Cola,Qualuob,Qualuob,DSP-المساكن ك 21,1,31.06563978000000,29.69744826000000,Cairo,
كافيتريا سوزان مبارك,EG,بهتيم داخل الحديقه الكهربائيه,,كافيتريا سوزان مبارك,,,Direct Sales,Coca-Cola,Qualuob,Qualuob,DSP-المساكن ك 21,1,31.06563978000000,29.69744826000000,Cairo,
قهوه حسن عيد,EG,داير الناحيه القبلي,,قهوه حسن عيد,,,Direct Sales,Coca-Cola,Qualuob,Qualuob,TELES-Sahel 1,1,30.822378,29.172778,Cairo,
شبكه الصياد,EG,ش15مايو,,شبكه الصياد,,,Direct Sales,Coca-Cola,Qualuob,Qualuob,TELES-Sahel 1,1,30.824048000000001,28.985807999999999,Cairo,
النور,EG,الروضه,,النور,,,Direct Sales,Coca-Cola,Qualuob,Qualuob,TELES-Sahel 1,1,30.971425,28.737946999999998,Cairo,
التوكل,EG,الترعه,,التوكل,,,Direct Sales,Coca-Cola,Qualuob,Qualuob,TELES-Heliopolis,1,30.09304587,31.32831432,Cairo,
هاني جمعه,EG,ش المشروع,,هاني جمعه,,,Direct Sales,Coca-Cola,Qualuob,Qualuob,TELES-Amria,1,31.20332362,29.96473976,Cairo,
هو الرزاق,EG,الاهرام,,هو الرزاق,,,Direct Sales,Coca-Cola,Qualuob,Qualuob,TELES-Amria,1,31.21248734,29.9438014,Cairo,
الخير,EG,جسر البحر,,الخير,,,Direct Sales,Coca-Cola,Qualuob,Qualuob,DSP-1 الجونة,1,27.40906297000000,33.67523318000010,Cairo,
الازهر,EG,صلاح الدين,,الازهر,,,Direct Sales,Coca-Cola,Qualuob,Qualuob,DSP-1 الجونة,1,27.40906297000000,33.67523318000010,Cairo,
كافتيريا مركز الشباب,EG,داخل مركز شباب قها,,كافتيريا مركز الشباب,,,Direct Sales,Coca-Cola,Qualuob,Qualuob,TELES-Heliopolis,1,30.08721658,31.33647093,Cairo,
عبادالرحمن,EG,الزراعه,,عبادالرحمن,,,Direct Sales,Coca-Cola,Qualuob,Qualuob,DSC-قوص,1,25.69064963600000,32.71903152600000,Cairo,
مقهي الشبيني,EG,العمومي,,مقهي الشبيني,,,Direct Sales,Coca-Cola,Qualuob,Qualuob,DSC-قوص,1,25.69064963600000,32.71903152600000,Cairo,
جمال الجنايني,EG,سليمان مجدي - امام الوحده المحليه,,جمال الجنايني,,,Direct Sales,Coca-Cola,Qualuob,Qualuob,DSC-منشاة العماري,1,25.69529971200010,32.65190697000000,Cairo,
المصطفي,EG,امام كه الرضا,,المصطفي,,,Direct Sales,Coca-Cola,Qualuob,Qualuob,DSC-منشاة العماري,1,25.69529971200010,32.65190697000000,Cairo,
مقهي,EG,خالد بن الوليد,,مقهي,,,Direct Sales,Coca-Cola,Qualuob,Qualuob,TELES-East Cairo,1,30.01836761,31.42487939,Cairo,
المحيط,EG,سعد زغلول,,المحيط,,,Direct Sales,Coca-Cola,Qualuob,Qualuob,TELES-East Cairo,1,30.02992546,31.49725786,Cairo,
مطعم كشريالمتوكل علي الله,EG,شنشور,,مطعم كشريالمتوكل علي الله,,,Direct Sales,Coca-Cola,Qualuob,Qualuob,DSP-طرح البحر,1,31.27077771,32.31098356,Cairo,
الامير,EG,الجمهوريه,,الامير,,,Direct Sales,Coca-Cola,Qualuob,Qualuob,DSP-طرح البحر,1,31.27077771,32.31098356,Cairo,
LAVA STEAKلايف ستيك,EG,احمد اسماعيل,,LAVA STEAKلايف ستيك,,,Direct Sales,Coca-Cola,Qualuob,Qualuob,TELES-Heliopolis,1,30.0032269,31.429451,Cairo,
ام حسن,EG,داخل المول الامام الشافعي,,ام حسن,,,Direct Sales,Coca-Cola,Qualuob,Qualuob,TELES-Sahel 1,1,30.967852000000001,28.745044,Cairo,
ابو خالد,EG,ش الشهيد الطيار,,ابو خالد,,,Direct Sales,Coca-Cola,Qualuob,Qualuob,TELES-Heliopolis,1,30.025953,31.406361,Cairo,
SMOKING,EG,ش الرئيس,,SMOKING,,,Direct Sales,Coca-Cola,Qualuob,Qualuob,TELES-East Cairo 2,1,30.029459,31.407148,Cairo,
ابراهيم نصارميدو,EG,جصفا,,ابراهيم نصارميدو,,,Direct Sales,Coca-Cola,Qualuob,Qualuob,TELES-October,1,30.019524,30.999352,Cairo,
ابو اسامه,EG,ش ميت بشار,,ابو اسامه,,,Direct Sales,Coca-Cola,Qualuob,Qualuob,TELES-Amria,1,31.16737666,29.93132677,Cairo,
ابو جهاد,EG,البحرايه الكوبري,,ابو جهاد,,,Direct Sales,Coca-Cola,Qualuob,Qualuob,DSP-الكوثر,1,27.09719346000000,33.82294645000010,Cairo,
ابو عبد الرحمن,EG,بهنباي,,ابو عبد الرحمن,,,Direct Sales,Coca-Cola,Qualuob,Qualuob,DSP-الكوثر,1,27.09719346000000,33.82294645000010,Cairo,
ابو عوض الله,EG,انشاص البصل,,ابو عوض الله,,,Direct Sales,Coca-Cola,Qualuob,Qualuob,TELES-East Cairo 2,1,30.01817172,31.41211299,Cairo,
ابو كريم,EG,جصفا,,ابو كريم,,,Direct Sales,Coca-Cola,Qualuob,Qualuob,TELES-Maadi,1,29.98186173,31.3160646,Cairo,
احمد,EG,عبد الغني,,احمد,,,Direct Sales,Coca-Cola,Qualuob,Qualuob,TELES-October,1,30.06346616,31.02769196,Cairo,
احمد وحبيبه,EG,المساح متفرع من بورسعيد,,احمد وحبيبه,,,Direct Sales,Coca-Cola,Qualuob,Qualuob,TELES-October,1,30.02122,31.003283,Cairo,
الايمان,EG,داخل المصريه بلازا,,الايمان,,,Direct Sales,Coca-Cola,Qualuob,Qualuob,TELES-East Cairo,1,30.064696,31.487991000000001,Cairo,
البركه,EG,سامي اباظه,,البركه,,,Direct Sales,Coca-Cola,Qualuob,Qualuob,TELES-Heliopolis,1,30.07456378,31.34536752,Cairo,
الحاجه فتحيه,EG,كوبري عمر,,الحاجه فتحيه,,,Direct Sales,Coca-Cola,Qualuob,Qualuob,DSP-الهانوفيل 1,1,31.09962913500000,29.77068307600010,Cairo,
الرايه,EG,منطقه ابني بيتك الحي العاشر بجوار,,الرايه,,,Direct Sales,Coca-Cola,Qualuob,Qualuob,DSP-الهانوفيل 1,1,31.09962913500000,29.77068307600010,Cairo,
العالميه,EG,المجاوره 9 السوق التجاري,,العالميه,,,Direct Sales,Coca-Cola,Qualuob,Qualuob,DSP-الشاطبى,1,31.21414999600010,29.92230860500010,Cairo,
العربي تسالي,EG,المحطه,,العربي تسالي,,,Direct Sales,Coca-Cola,Qualuob,Qualuob,DSP-الشاطبى,1,31.21414999600010,29.92230860500010,Cairo,
المروه,EG,حاره محمد يوسف من مصطفي كامل,,المروه,,,Direct Sales,Coca-Cola,Qualuob,Qualuob,TELES-Sahel 1,1,30.9962746,28.6814714,Cairo,
المصطفي,EG,كمال الدهشور,,المصطفي,,,Direct Sales,Coca-Cola,Qualuob,Qualuob,TELES-Sahel 1,1,30.9627379,28.7562505,Cairo,
النادي,EG,المدينه المنوره,,النادي,,,Direct Sales,Coca-Cola,Qualuob,Qualuob,TELES-Sahel 1,1,30.9627379,28.7562505,Cairo,
النور,EG,المحطه,,النور,,,Direct Sales,Coca-Cola,Qualuob,Qualuob,TELES-Sahel 1,1,30.82802419,28.9831913,Cairo,
الوليد ماركت,EG,محمود ابو النجا,,الوليد ماركت,,,Direct Sales,Coca-Cola,Qualuob,Qualuob,TELES-Sahel 1,1,30.8439324,28.97670465,Cairo,
ام بودي,EG,طريق الزقازيق-الغار,,ام بودي,,,Direct Sales,Coca-Cola,Qualuob,Qualuob,TELES-Sahel 1,1,30.8259321,28.983955,Cairo,
ام محمد,EG,بني اشبل,,ام محمد,,,Direct Sales,Coca-Cola,Qualuob,Qualuob,TELES-Sahel 1,1,31.0097156,28.6049407,Cairo,
اهل الخير,EG,الحريه امام حديقه فاطمه الزهراء,,اهل الخير,,,Direct Sales,Coca-Cola,Qualuob,Qualuob,TELES-Amria,1,31.20720004,29.96469419,Cairo,
اولاد ابو صادق,EG,متفرع من المسجد الكبير,,اولاد ابو صادق,,,Direct Sales,Coca-Cola,Qualuob,Qualuob,TELES-Amria,1,31.24322168,29.95816771,Cairo,
اولاد الصادق,EG,متفرع من العمومي بجوار المسجد,,اولاد الصادق,,,Direct Sales,Coca-Cola,Qualuob,Qualuob,TELES-Amria,1,31.2457241,29.96742523,Cairo,
اولاد سعفان,EG,حكيم-مكه المكرمه,,اولاد سعفان,,,Direct Sales,Coca-Cola,Qualuob,Qualuob,TELES-Amria,1,31.23567831,29.95017158,Cairo,
بقاله,EG,الوحده المحليه,,بقاله,,,Direct Sales,Coca-Cola,Qualuob,Qualuob,TELES-Amria,1,31.20011279,29.91208986,Cairo,
جوهر,EG,بورسعيد,,جوهر,,,Key Accounts,Coca-Cola,Qualuob,Qualuob,TELES-Amria,1,31.1656313,29.93315137,Cairo,
حسن بد الستار,EG,ش المدارس,,حسن بد الستار,,,Direct Sales,Coca-Cola,Qualuob,Qualuob,TELES-Amria,1,31.20313105,29.95688764,Cairo,
حمدي عبد المنعم,EG,بشلا,,حمدي عبد المنعم,,,Direct Sales,Coca-Cola,Qualuob,Qualuob,DSP-شيري,1,27.214333,33.839777,Cairo,
سليمان,EG,الجمهوريه,,سليمان,,,Direct Sales,Coca-Cola,Qualuob,Qualuob,DSP-شيري,1,27.214333,33.839777,Cairo,
سما وجيه,EG,المدارس,,سما وجيه,,,Direct Sales,Coca-Cola,Qualuob,Qualuob,TELES-Ain Shams N.,1,30.174249,31.475782,Cairo,
سمير عزت,EG,نبيل الباجوري,,سمير عزت,,,Direct Sales,Coca-Cola,Qualuob,Qualuob,TELES-Heliopolis,1,30.10624636,31.33306747,Cairo,
عربي شنب,EG,داير الناحيه,,عربي شنب,,,Direct Sales,Coca-Cola,Qualuob,Qualuob,TELES-Heliopolis,1,30.07455764,31.34556077,Cairo,
عزوز,EG,البطل حسين شاكر ش المسلمه القبلي,,عزوز,,,Direct Sales,Coca-Cola,Qualuob,Qualuob,TELES-Heliopolis,1,30.074533,31.34633715,Cairo,
لئن شكرتم لازيدنكم,EG,جصفا,,لئن شكرتم لازيدنكم,,,Direct Sales,Coca-Cola,Qualuob,Qualuob,TELES-Heliopolis,1,30.09059037,31.31563746,Cairo,
ماركت مريم,EG,بجوار صيدليه الجامع الكبير (الجامع,,ماركت مريم,,,Direct Sales,Coca-Cola,Qualuob,Qualuob,TELES-Central Cairo,1,30.04927822,31.24221423,Cairo,
محمد ابو هاشم,EG,سيد فرج,,محمد ابو هاشم,,,Direct Sales,Coca-Cola,Qualuob,Qualuob,TELES-East Cairo,1,30.05852417,31.48961451,Cairo,
محمد الغرباوي,EG,طريق شنباره,,محمد الغرباوي,,,Direct Sales,Coca-Cola,Qualuob,Qualuob,TELES-East Cairo 2,1,30.06242954,31.33664595,Cairo,
محمد حسن داوود,EG,محمود البار متفرع من بلال ابن رباح,,محمد حسن داوود,,,Direct Sales,Coca-Cola,Qualuob,Qualuob,TELES-East Cairo 2,1,30.06894651,31.35584116,Cairo,
محمد علي ابو علي,EG,فجر الاسلام,,محمد علي ابو علي,,,Direct Sales,Coca-Cola,Qualuob,Qualuob,TELES-East Cairo,1,30.02792946,31.40544192,Cairo,
محمود العربي,EG,هريه الرزانه,,محمود العربي,,,Direct Sales,Coca-Cola,Qualuob,Qualuob,TELES-East Cairo 2,1,30.08519215,31.64006681,Cairo,
مقله الشافعيطارق الشافعي,EG,الحريه,,مقله الشافعيطارق الشافعي,,,Direct Sales,Coca-Cola,Qualuob,Qualuob,TELES-East Cairo 2,1,30.02582608,31.496073,Cairo,
مقله الشرقيه,EG,الجلاء-عناني بك امام حديقه الطفل,,مقله الشرقيه,,,Direct Sales,Coca-Cola,Qualuob,Qualuob,TELES-Maadi,1,29.96573004,31.26964818,Cairo,
مكتبه,EG,طريق الزقازيق المنصوره,,مكتبه,,,Direct Sales,Coca-Cola,Qualuob,Qualuob,TELES-Maadi,1,29.95706398,31.26073335,Cairo,
مكتبه الكوبري الجديده,EG,عرابي باشا,,مكتبه الكوبري الجديده,,,Direct Sales,Coca-Cola,Qualuob,Qualuob,TELES-Mansora,1,31.04597566,31.35552528,Cairo,
مكه,EG,هارون الرشيدي,,مكه,,,Direct Sales,Coca-Cola,Qualuob,Qualuob,TELES-Manyal Shiha,1,30.06519784,31.22165901,Cairo,
هيما ماركت,EG,طريق ميت جابر بيئه عامر,,هيما ماركت,,,Direct Sales,Coca-Cola,Qualuob,Qualuob,TELES-Manyal Shiha,1,30.05745644,31.20502609,Cairo,
FELIC,EG,شارع جسر النيل من احمد عرابي,,FELIC,,,Direct Sales,Coca-Cola,Qualuob,Qualuob,TELES-Manyal Shiha,1,30.03963504,31.20575303,Cairo,
RELAX,EG,شارع السكه الحديد,,RELAX,,,Direct Sales,Coca-Cola,Qualuob,Qualuob,TELES-October,1,30.02019816,31.00238037,Cairo,
ROMIO,EG,المسلميه الشرقي,,ROMIO,,,Direct Sales,Coca-Cola,Qualuob,Qualuob,TELES-October,1,29.9920747,30.96598335,Cairo,
ابراهيم,EG,سعد زغلول امام مسجد ابو سيف,,ابراهيم,,,Direct Sales,Coca-Cola,Qualuob,Qualuob,TELES-October,1,29.97439447,30.94226226,Cairo,
ابو فريح,EG,سعد زغلول امام عياده الزهره,,ابو فريح,,,Direct Sales,Coca-Cola,Qualuob,Qualuob,TELES-October,1,30.02697932,31.01356462,Cairo,
البتاوين الشاويش عطيه,EG,امام مستشفي الجامعه بجوار نادي الشر,,البتاوين الشاويش عطيه,,,Direct Sales,Coca-Cola,Qualuob,Qualuob,TELES-October,1,30.06452065,31.02703397,Cairo,
البن البرازيلي,EG,امام هايبر وان,,البن البرازيلي,,,Direct Sales,Coca-Cola,Qualuob,Qualuob,TELES-October,1,29.95951772,31.05985048,Cairo,
التحرير,EG,عرابي,,التحرير,,,Direct Sales,Coca-Cola,Qualuob,Qualuob,TELES-October,1,30.07353502,30.94522822,Cairo,
الجوكر,EG,متفرع من التوحيد,,الجوكر,,,Direct Sales,Coca-Cola,Qualuob,Qualuob,TELES-October,1,30.084828,31.033142,Cairo,
الحمامجي,EG,محمد شعراوي,,الحمامجي,,,Direct Sales,Coca-Cola,Qualuob,Qualuob,TELES-East Cairo 2,1,29.9728949,31.4924104,Cairo,
الخان,EG,سعد زغلول,,الخان,,,Direct Sales,Coca-Cola,Qualuob,Qualuob,TELES-Heliopolis,1,30.07455821,31.34554304,Cairo,
الرشيدي,EG,ش احمد عرابي بجوار مزلقان القطار,,الرشيدي,,,Direct Sales,Coca-Cola,Qualuob,Qualuob,TELES-Heliopolis,1,30.07455912,31.34551415,Cairo,
الرشيدي,EG,الشهيد جلال الدسوقي,,الرشيدي,,,Direct Sales,Coca-Cola,Qualuob,Qualuob,TELES-Heliopolis,1,30.07455239,31.34572645,Cairo,
الرويني,EG,23 يوليو بجوار محطه السكه الحديد,,الرويني,,,Direct Sales,Coca-Cola,Qualuob,Qualuob,TELES-Heliopolis,1,30.06827177,31.34499637,Cairo,
الفيشاوي,EG,ابو بكر الصديق,,الفيشاوي,,,Direct Sales,Coca-Cola,Qualuob,Qualuob,TELES-Heliopolis,1,30.07456016,31.34548161,Cairo,
باستري,EG,سعد زغلول,,باستري,,,Direct Sales,Coca-Cola,Qualuob,Qualuob,TELES-Amria,1,31.2069004,29.90732452,Cairo,
ثوره يناير,EG,العمومي,,ثوره يناير,,,Direct Sales,Coca-Cola,Qualuob,Qualuob,TELES-East Cairo 2,1,30.06109667,31.43718444,Cairo,
جاردنيا,EG,الموقف,,جاردنيا,,,Direct Sales,Coca-Cola,Qualuob,Qualuob,TELES-Manyal Shiha,1,30.0753991,31.1594602,Cairo,
حضر موت,EG,سوق الاردنيه,,حضر موت,,,Direct Sales,Coca-Cola,Qualuob,Qualuob,TELES-East Cairo,1,30.01900036,31.42552278,Cairo,
حضر موت الحلبي,EG,محمد الطوخي,,حضر موت الحلبي,,,Direct Sales,Coca-Cola,Qualuob,Qualuob,TELES-Manyal Shiha,1,30.02572624,31.21820925,Cairo,
حضرموت الحلبي,EG,الاندلس مجاوره 7 تقسيم الاطباء,,حضرموت الحلبي,,,Direct Sales,Coca-Cola,Qualuob,Qualuob,TELES-Manyal Shiha,1,30.05914547,31.22406203,Cairo,
حمو,EG,البطل عبد المنعم رياض,,حمو,,,Direct Sales,Coca-Cola,Qualuob,Qualuob,DSP-طرح البحر,1,31.270615250,32.306730450,Cairo,
ديشه,EG,موقف الزراعه,,ديشه,,,Direct Sales,Coca-Cola,Qualuob,Qualuob,DSP-طرح البحر,1,31.270615250,32.306730450,Cairo,
روك تشيكن,EG,ش الايمان,,روك تشيكن,,,Direct Sales,Coca-Cola,Qualuob,Qualuob,DSP-مارينا,1,27.90889650000000,34.32418950000000,Cairo,
زلطه,EG,المحطه من ش حسن البنا,,زلطه,,,Direct Sales,Coca-Cola,Qualuob,Qualuob,DSP-مارينا,1,27.90889650000000,34.32418950000000,Cairo,
سلسله الشبراوي,EG,عبد الحليم محمود السوق التجاري,,سلسله الشبراوي,,,Direct Sales,Coca-Cola,Qualuob,Qualuob,DSP-1 الجونة,1,27.39647004200000,33.67570636400010,Cairo,
سيفين اليفين,EG,ش ابراهيم حسن,,سيفين اليفين,,,Direct Sales,Coca-Cola,Qualuob,Qualuob,DSP-1 الجونة,1,27.39647004200000,33.67570636400010,Cairo,
طيبه,EG,المجاوره 6 خلف احمد شوقي بجوار المد,,طيبه,,,Direct Sales,Coca-Cola,Qualuob,Qualuob,DSP-1 الجونة,1,27.407197,33.674099,Cairo,
عبد الوهاب احمد علام,EG,بورسعيد المحطه,,عبد الوهاب احمد علام,,,Direct Sales,Coca-Cola,Qualuob,Qualuob,DSP-1 الجونة,1,27.407197,33.674099,Cairo,
عرابي,EG,الجيش برج الاطباء,,عرابي,,,Direct Sales,Coca-Cola,Qualuob,Qualuob,DSP-بورتوفيق,1,29.956125,32.541539,Cairo,
فتحه خير,EG,البحر,,فتحه خير,,,Direct Sales,Coca-Cola,Qualuob,Qualuob,DSP-بورتوفيق,1,29.956125,32.541539,Cairo,
فودز هوم,EG,ش ابو بكر الصديق,,فودز هوم,,,Direct Sales,Coca-Cola,Qualuob,Qualuob,TELES-October,1,30.0096027,30.9739767,Cairo,
قصر المشويات,EG,سوق الاردنيه,,قصر المشويات,,,Direct Sales,Coca-Cola,Qualuob,Qualuob,TELES-East Cairo,1,30.0488353,31.4757355,Cairo,
كل الناس,EG,النصر بجوار بنك القاهره,,كل الناس,,,Key Accounts,Coca-Cola,Qualuob,Qualuob,TELES-Heliopolis,1,30.034615800000001,31.429328999999999,Cairo,
كنوز,EG,امام موقف الزقازيق,,كنوز,,,Direct Sales,Coca-Cola,Qualuob,Qualuob,DSP-الحى المتميز,1,29.995675743,30.96410614,Cairo,
مسمط بورسعيد,EG,بورسعيد متفرع من العراقي,,مسمط بورسعيد,,,Direct Sales,Coca-Cola,Qualuob,Qualuob,DSP-الحى المتميز,1,29.995675743,30.96410614,Cairo,
مطعم,EG,داير الناحيه,,مطعم,,,Direct Sales,Coca-Cola,Qualuob,Qualuob,DSP-الحي الثالث,1,29.95566,30.958763,Cairo,
مطعم,EG,طريق ميت جابر بيئه عامر,,مطعم,,,Direct Sales,Coca-Cola,Qualuob,Qualuob,DSP-الحي الثالث,1,29.95566,30.958763,Cairo,
مول,EG,ش مسجد النصر,,مول,,,Direct Sales,Coca-Cola,Qualuob,Qualuob,DSP- ش المنيل1-معادى,1,30.02843454000000,31.22600021000010,Cairo,
وليمه,EG,عبد الحميد الطماوي,,وليمه,,,Direct Sales,Coca-Cola,Qualuob,Qualuob,DSP- ش المنيل1-معادى,1,30.02843454000000,31.22600021000010,Cairo,
ملك والمشد,EG,الرحمه,,ملك والمشد,,,Direct Sales,Coca-Cola,Qualuob,Qualuob,TELES-Maadi,1,30.0300082,31.22771368,Cairo,
عزت ابو احمد,EG,ش 6 اكتوبر,,عزت ابو احمد,,,Direct Sales,Coca-Cola,Qualuob,Qualuob,DSP-منافذ منيل-شيحا,1,30.02675,31.21096,Cairo,
ابراهيم حسن,EG,ش البحر بجوار المقهي,,ابراهيم حسن,,,Direct Sales,Coca-Cola,Qualuob,Qualuob,DSP-منافذ منيل-شيحا,1,30.02675,31.21096,Cairo,
جمعيه الاورمان,EG,العمومي بجوار صيدليه ايمان,,جمعيه الاورمان,,,Direct Sales,Coca-Cola,Qualuob,Qualuob,DSP-منافذ منيل-شيحا,1,30.04360246000000,31.20209881000010,Cairo,
عبد الفتاح,EG,تحت الكوبري,,عبد الفتاح,,,Direct Sales,Coca-Cola,Qualuob,Qualuob,DSP-منافذ منيل-شيحا,1,30.04360246000000,31.20209881000010,Cairo,
كشك,EG,المدرسه الاعداديه,,كشك,,,Direct Sales,Coca-Cola,Qualuob,Qualuob,DSP-منافذ منيل-شيحا,1,30.04363568000010,31.20210022000000,Cairo,
دنيا الصحابه,EG,محمود النقراشي امام البنك الاهلي ا,,دنيا الصحابه,,,Direct Sales,Coca-Cola,Qualuob,Qualuob,DSP-منافذ منيل-شيحا,1,30.04363568000010,31.20210022000000,Cairo,
ابو احمد,EG,المظلوم بجوار معهد بلبيس الازهري,,ابو احمد,,,Direct Sales,Coca-Cola,Qualuob,Qualuob,DSP- ش المنيل1-معادى,1,30.02811112000010,31.22719598000000,Cairo,
كشك ايمان سعد,EG,ميدان المحطه امام مكتب بريد ميت غمر,,كشك ايمان سعد,,,Direct Sales,Coca-Cola,Qualuob,Qualuob,TELES-East Cairo 2,1,29.98675108,31.43815667,Cairo,
التقوي,EG,23 يوليو,,التقوي,,,Direct Sales,Coca-Cola,Qualuob,Qualuob,TELES-Amria,1,31.19986249,29.92050688,Cairo,
SYRIANA,EG,محي الدين عبد الحميد,,SYRIANA,,,Direct Sales,Coca-Cola,Qualuob,Qualuob,TELES-Amria,1,31.20002878,29.92042212,Cairo,
LILLY'S CAFÉ,EG,السوق التجاري مدينه الرحاب,,LILLY'S CAFÉ,,,Direct Sales,Coca-Cola,Qualuob,Qualuob,DSP2منافذمصرالجديده,1,30.07702331,31.29169192,Cairo,
ابناء سوهاج,EG,مجاوره 4 مساكن الشباب,,ابناء سوهاج,,,Direct Sales,Coca-Cola,Qualuob,Qualuob,DSP2منافذمصرالجديده,1,30.07702331,31.29169192,Cairo,
ابو علي,EG,التسعين الجنوبي,,ابو علي,,,Direct Sales,Coca-Cola,Qualuob,Qualuob,DSC-دمنهور الجديدة,1,31.05231000000000,30.46293000000000,Cairo,
اتوماتيك,EG,السوق,,اتوماتيك,,,Direct Sales,Coca-Cola,Qualuob,Qualuob,DSC-دمنهور الجديدة,1,31.05231000000000,30.46293000000000,Cairo,
اسماك المراكبي,EG,شارع التسعين الجنوبي,,اسماك المراكبي,,,Direct Sales,Coca-Cola,Qualuob,Qualuob,DSC-الروضة,1,31.03895224,30.42998511,Cairo,
اسواق الخير,EG,المجاوره الرابعه,,اسواق الخير,,,Direct Sales,Coca-Cola,Qualuob,Qualuob,DSC-الروضة,1,31.03895224,30.42998511,Cairo,
حسن الشرقاوي,EG,محمد حسنين هيكل - سوق 11,,حسن الشرقاوي,,,Direct Sales,Coca-Cola,Qualuob,Qualuob,TELES-East Cairo 2,1,30.0187651,31.499518299999998,Cairo,
التكيه,EG,السوق التجاري,,التكيه,,,Direct Sales,Coca-Cola,Qualuob,Qualuob,TELES-Heliopolis,1,30.07252211,31.28466816,Cairo,
الجزيره,EG,ابراهيم الرفاعي,,الجزيره,,,Direct Sales,Coca-Cola,Qualuob,Qualuob,DSP2منافذمصرالجديده,1,30.07702331,31.29169192,Cairo,
الحاتي,EG,ارابيسك مول,,الحاتي,,,Direct Sales,Coca-Cola,Qualuob,Qualuob,DSP2منافذمصرالجديده,1,30.07702331,31.29169192,Cairo,
الحديقه الدوليه,EG,الحديقه الدوليه,,الحديقه الدوليه,,,Direct Sales,Coca-Cola,Qualuob,Qualuob,DSP2منافذمصرالجديده,1,30.07702331,31.29169192,Cairo,
مطعم الحطاب السوري,EG,مصطفي النحاس,,مطعم الحطاب السوري,,,Direct Sales,Coca-Cola,Qualuob,Qualuob,DSP2منافذمصرالجديده,1,30.07702331,31.29169192,Cairo,
الدواق,EG,كامل خضر,,الدواق,,,Direct Sales,Coca-Cola,Qualuob,Qualuob,TELES-Sharm ElSheikh,1,27.8682815,34.2992839,Cairo,
السويس,EG,السوق التجاري مدينه الرحاب,,السويس,,,Direct Sales,Coca-Cola,Qualuob,Qualuob,TELES-Amria,1,31.05588003,29.71982098,Cairo,
النخيل,EG,مجاوره 2 التجمع الاول,,النخيل,,,Direct Sales,Coca-Cola,Qualuob,Qualuob,TELES-Amria,1,30.986743,29.6819269,Cairo,
المطبعه,EG,مول امون,,المطبعه,,,Direct Sales,Coca-Cola,Qualuob,Qualuob,DSC-منطقة برانيس,1,24.89829840000000,34.97975305000010,Cairo,
الملاح,EG,ش محمود خيري من ش عباس العقاد,,الملاح,,,Direct Sales,Coca-Cola,Qualuob,Qualuob,DSC-منطقة برانيس,1,24.89829840000000,34.97975305000010,Cairo,
الشبراوي,EG,المجاوره الرابعه,,الشبراوي,,,Direct Sales,Coca-Cola,Qualuob,Qualuob,TELES-Hurghada,1,26.85137012,33.98933968,Cairo,
الشبراوي,EG,سمير عبد الروؤف,,الشبراوي,,,Direct Sales,Coca-Cola,Qualuob,Qualuob,TELES-Hurghada,1,27.0009023,33.8984998,Cairo,
الشبراوي,EG,الحس السادس,,الشبراوي,,,Direct Sales,Coca-Cola,Qualuob,Qualuob,TELES-Hurghada,1,25.93901752,34.38813374,Cairo,
الشبرواي,EG,احمد الزمر,,الشبرواي,,,Key Accounts,Coca-Cola,Qualuob,Qualuob,TELES-Hurghada,1,27.08853235,33.84877269,Cairo,
الكومي,EG,المحموديه,,الكومي,,,Direct Sales,Coca-Cola,Qualuob,Qualuob,TELES-Hurghada,1,27.10470559,33.82556677,Cairo,
الماسهاحمد البطل,EG,مدرسه السادات,,الماسهاحمد البطل,,,Direct Sales,Coca-Cola,Qualuob,Qualuob,TELES-Hurghada,1,27.10976428,33.82514781,Cairo,
المحبه,EG,السوق التجاري مدينه الرحاب,,المحبه,,,Direct Sales,Coca-Cola,Qualuob,Qualuob,TELES-Hurghada,1,27.08825499,33.84680079,Cairo,
المحمدي,EG,المرحله الاولي الزهراء,,المحمدي,,,Direct Sales,Coca-Cola,Qualuob,Qualuob,TELES-Hurghada,1,27.30769865,33.72010409,Cairo,
المصطفي,EG,قبلي السكه,,المصطفي,,,Direct Sales,Coca-Cola,Qualuob,Qualuob,TELES-Hurghada,1,27.39434296,33.68016859,Cairo,
البركه,EG,احمد ابو سليمان,,البركه,,,Direct Sales,Coca-Cola,Qualuob,Qualuob,TELES-Hurghada,1,25.21504769,34.79859688,Cairo,
TAO,EG,محمود العيسوي,,TAO,,,Direct Sales,Coca-Cola,Qualuob,Qualuob,TELES-Hurghada,1,25.06167903,34.89301128,Cairo,
ميدو,EG,مصطفي كامل,,ميدو,,,Direct Sales,Coca-Cola,Qualuob,Qualuob,TELES-Hurghada,1,26.145581,34.256623,Cairo,
نسر الصعيد,EG,ش الاكاديميه  مصطفي النحاس,,نسر الصعيد,,,Direct Sales,Coca-Cola,Qualuob,Qualuob,TELES-Hurghada,1,26.80235942,33.94400194,Cairo,
الف ليله وليله,EG,رشاد توفيق,,الف ليله وليله,,,Direct Sales,Coca-Cola,Qualuob,Qualuob,TELES-Hurghada,1,26.80183948,33.94246113,Cairo,
مقهي هاني,EG,ملك حنفي  - داخل محطه القطار,,مقهي هاني,,,Direct Sales,Coca-Cola,Qualuob,Qualuob,TELES-Hurghada,1,27.244406,33.842336,Cairo,
الزعيم,EG,احمد ابو سليمان,,الزعيم,,,Direct Sales,Coca-Cola,Qualuob,Qualuob,TELES-Hurghada,1,26.84679346,33.99919041,Cairo,
بقاله,EG,بور سعيد,,بقاله,,,Direct Sales,Coca-Cola,Qualuob,Qualuob,TELES-Hurghada,1,27.19694529,33.84309148,Cairo,
سكره بي الوليد,EG,حسن سليمان شارع 11,,سكره بي الوليد,,,Direct Sales,Coca-Cola,Qualuob,Qualuob,TELES-Hurghada,1,27.094631,33.834467,Cairo,
كشك,EG,ش 30,,كشك,,,Direct Sales,Coca-Cola,Qualuob,Qualuob,TELES-Sharm ElSheikh,1,28.034571,34.4355864,Cairo,
وفاء دمشق,EG,ش 30,,وفاء دمشق,,,Direct Sales,Coca-Cola,Qualuob,Qualuob,TELES-Sharm ElSheikh,1,27.9172964,34.3351286,Cairo,
اولاد القاضيخالد القاضي,EG,عمر ابن عبد العزيز,,اولاد القاضيخالد القاضي,,,Direct Sales,Coca-Cola,Qualuob,Qualuob,TELES-Sharm ElSheikh,1,27.869965,34.32007,Cairo,
ركن السلطان,EG,الجيش,,ركن السلطان,,,Direct Sales,Coca-Cola,Qualuob,Qualuob,TELES-Sharm ElSheikh,1,27.9163217,34.3605419,Cairo,
الكورنيش,EG,الابراج,,الكورنيش,,,Direct Sales,Coca-Cola,Qualuob,Qualuob,TELES-Sharm ElSheikh,1,27.856436,34.31052,Cairo,
سعاد سالم,EG,ش دابور الميه,,سعاد سالم,,,Direct Sales,Coca-Cola,Qualuob,Qualuob,TELES-Sharm ElSheikh,1,28.0182137,34.4345852,Cairo,
طق طق,EG,امام مركز تعزيه المدارس-مساكن ا,01002816347,طق طق,,,Direct Sales,Coca-Cola,Qualuob,Qualuob,TELES-Hurghada,1,27.398486,33.673463,Cairo,
طق طق,EG,نكلا العنب امام كوبري نكلا,01280161549,طق طق,,,Direct Sales,Coca-Cola,Qualuob,Qualuob,TELES-Sharm ElSheikh,1,28.01568265,34.41886686,Cairo,
محمود رمضان,EG,ابو المطامير,01286720346,محمود رمضان,,,Direct Sales,Coca-Cola,Qualuob,Qualuob,TELES-Sharm ElSheikh,1,29.4925775,34.8980327,Cairo,
ملكابو احمد,EG,مدخل ابو حمص,,ملكابو احمد,,,Direct Sales,Coca-Cola,Qualuob,Qualuob,TELES-Sharm ElSheikh,1,27.8679406,34.3183259,Cairo,
ابو حماد,EG,داخل محطه القطار,01282169545,ابو حماد,,,Direct Sales,Coca-Cola,Qualuob,Qualuob,TELES-Sahel 1,1,31.03495306,28.59155743,Cairo,
كافينو ابو قمر,EG,التدريب المهني,,كافينو ابو قمر,,,Direct Sales,Coca-Cola,Qualuob,Qualuob,TELES-Hurghada,1,27.14429564,33.82205609,Cairo,
ميامي,EG,عمرو بن العاص,01282888600,ميامي,,,Direct Sales,Coca-Cola,Qualuob,Qualuob,TELES-Sharm ElSheikh,1,27.968225,34.3952,Cairo,
اين اشيائي,EG,علي خليفه,01282169274,اين اشيائي,,,Direct Sales,Coca-Cola,Qualuob,Qualuob,TELES-Sharm ElSheikh,1,28.01836605,34.42905321,Cairo,
القصر,EG,امام المدرسه الصناعه,01282182974,القصر,,,Direct Sales,Coca-Cola,Qualuob,Qualuob,TELES-Sharm ElSheikh,1,28.04029395,34.42388527,Cairo,
SAVORY,EG,عبد العال نصر,01280999323,SAVORY,,,Direct Sales,Coca-Cola,Qualuob,Qualuob,TELES-Hurghada,1,27.131746,33.827119,Cairo,
الزعيم,EG,ش عرابي,01270862003,الزعيم,,,Direct Sales,Coca-Cola,Qualuob,Qualuob,TELES-Hurghada,1,26.15345162,34.24584747,Cairo,
اولاد الشافعي,EG,الطريق السريع,01281856162,اولاد الشافعي,,,Direct Sales,Coca-Cola,Qualuob,Qualuob,TELES-Hurghada,1,26.82579267,33.93116836,Cairo,
ابو زياد,EG,عثمان بن عفان,01281874812,ابو زياد,,,Direct Sales,Coca-Cola,Qualuob,Qualuob,TELES-Hurghada,1,25.95047334,34.37364075,Cairo,
بالهنا,EG,علي بن ابي طالب,01281713465,بالهنا,,,Direct Sales,Coca-Cola,Qualuob,Qualuob,TELES-Ismailia,1,30.58593562,32.28804677,Cairo,
روما ROMA,EG,الراهبات,,روما ROMA,,,Direct Sales,Coca-Cola,Qualuob,Qualuob,TELES-Sharm ElSheikh,1,27.9142777,34.3387409,Cairo,
TOP CHEF,EG,الجمهوريه,,TOP CHEF,,,Direct Sales,Coca-Cola,Qualuob,Qualuob,TELES-Sharm ElSheikh,1,29.4929059,34.8951215,Cairo,
TOP CHEF,EG,ش خالد بن الوليد,01281700374,TOP CHEF,,,Direct Sales,Coca-Cola,Qualuob,Qualuob,TELES-Sharm ElSheikh,1,27.9173278,34.3307713,Cairo,
عاصي,EG,محمود الحبروك,01282182728,عاصي,,,Direct Sales,Coca-Cola,Qualuob,Qualuob,TELES-Sharm ElSheikh,1,27.91635493,34.33164102,Cairo,
مطعم الحويلي,EG,ميدان المحطه,01282182510,مطعم الحويلي,,,Direct Sales,Coca-Cola,Qualuob,Qualuob,DSP-العين السخنة,1,29.54407796,32.36628864,Cairo,
الحريف,EG,الشهيد حسن البنا,01283377638,الحريف,,,Direct Sales,Coca-Cola,Qualuob,Qualuob,DSP-العين السخنة,1,29.54407796,32.36628864,Cairo,
NOUR,EG,ابو بكر العجمي,,NOUR,,,Direct Sales,Coca-Cola,Qualuob,Qualuob,TELES-Heliopolis,1,30.12118913,31.40198929,Cairo,
النصر,EG,ابو القاسم,,النصر,,,Direct Sales,Coca-Cola,Qualuob,Qualuob,DSC-عباس فريد,1,24.09324318,32.89150888,Cairo,
عروس النيل,EG,الكورنيش,,عروس النيل,,,Direct Sales,Coca-Cola,Qualuob,Qualuob,DSC-عباس فريد,1,24.09324318,32.89150888,Cairo,
فراج عبد الله,EG,الترعه,01281636319,فراج عبد الله,,,Direct Sales,Coca-Cola,Qualuob,Qualuob,DSC-العقاد,1,24.0824871,32.88783958,Cairo,
ام اشرف,EG,الترعه,,ام اشرف,,,Direct Sales,Coca-Cola,Qualuob,Qualuob,DSC-العقاد,1,24.0824871,32.88783958,Cairo,
مقهي,EG,اولاد سلامه,,مقهي,,,Direct Sales,Coca-Cola,Qualuob,Qualuob,DSC-الكرنك,1,25.739440999999999,32.665320999999999,Cairo,
ليالي الشام,EG,السوق التجاري- مدينه الرحاب,,ليالي الشام,,,Direct Sales,Coca-Cola,Qualuob,Qualuob,DSC-الكرنك,1,25.739440999999999,32.665320999999999,Cairo,
انتو,EG,البطراوي,01288077495,انتو,,,Direct Sales,Coca-Cola,Qualuob,Qualuob,DSC-التليفزيون,1,25.696961000000002,32.637301999999998,Cairo,
اولاد رجب,EG,معز الدوله,,اولاد رجب,,,Direct Sales,Coca-Cola,Qualuob,Qualuob,DSC-التليفزيون,1,25.696961000000002,32.637301999999998,Cairo,
بانديدوسBANDIDOS,EG,القاهره الجديده,01279975388,بانديدوسBANDIDOS,,,Direct Sales,Coca-Cola,Qualuob,Qualuob,TELES-Manyal Shiha,1,30.04470408,31.22684551,Cairo,
تيبيستيTEBESTY,EG,فاميلي مول,,تيبيستيTEBESTY,,,Direct Sales,Coca-Cola,Qualuob,Qualuob,TELES-Manyal Shiha,1,30.03876677,31.22465514,Cairo,
BURGASTA,EG,محمود ابراهيم,01279973347,BURGASTA,,,Direct Sales,Coca-Cola,Qualuob,Qualuob,TELES-October,1,29.96693871,31.01745651,Cairo,
جيهان السيد,EG,حي المسثمرين بجوار مسجد الرحمن الر,01284232200,جيهان السيد,,,Direct Sales,Coca-Cola,Qualuob,Qualuob,TELES-October,1,29.99526166,30.96888939,Cairo,
حاتي الشيخ,EG,حسن مامون,01279971449,حاتي الشيخ,,,Direct Sales,Coca-Cola,Qualuob,Qualuob,TELES-Heliopolis,1,30.10549092,31.36534783,Cairo,
سلسله حسني,EG,ش66,01288078440,سلسله حسني,,,Direct Sales,Coca-Cola,Qualuob,Qualuob,DSP-التوفيق,1,30.07605212500000,31.31966222500010,Cairo,
حسني,EG,عطيه الصوالحي,01211099116,حسني,,,Direct Sales,Coca-Cola,Qualuob,Qualuob,DSP-التوفيق,1,30.07605212500000,31.31966222500010,Cairo,
حضر موتابو اسلام,EG,حسن المامون,01211655488,حضر موتابو اسلام,,,Direct Sales,Coca-Cola,Qualuob,Qualuob,TELES-Heliopolis,1,30.07875815,31.31798055,Cairo,
حضر موت,EG,المجاوره 9,01228781117,حضر موت,,,Direct Sales,Coca-Cola,Qualuob,Qualuob,DSC-العواميه,1,25.68866,32.631204,Cairo,
هارميس,EG,عريات باشا,,هارميس,,,Direct Sales,Coca-Cola,Qualuob,Qualuob,DSC-العواميه,1,25.68866,32.631204,Cairo,
مورانو كافيه,EG,السوق التجاري داخل المول,01275382529,مورانو كافيه,,,Direct Sales,Coca-Cola,Qualuob,Qualuob,DSC-العواميه,1,25.68816,32.63215667,Cairo,
MONTAGGIO,EG,ش مينا,01283273563,MONTAGGIO,,,Direct Sales,Coca-Cola,Qualuob,Qualuob,DSC-العواميه,1,25.68816,32.63215667,Cairo,
CRAVE,EG,طريق الجيش او الكورنيش(الدور1),,CRAVE,,,Direct Sales,Coca-Cola,Qualuob,Qualuob,TELES-Shobra,1,30.07219826,31.22789432,Cairo,
سلسله موبيل مارت,EG,شارع 14 سموحه,,سلسله موبيل مارت,,,Direct Sales,Coca-Cola,Qualuob,Qualuob,TELES-Heliopolis,1,30.07206217,31.34751085,Cairo,
GARLETT,EG,ش محمد بهاء الدين,01282880498,GARLETT,,,Direct Sales,Coca-Cola,Qualuob,Qualuob,TELES-Heliopolis,1,30.07302469,31.3440195,Cairo,
TYUNCHY,EG,احمد قمحه,,TYUNCHY,,,Direct Sales,Coca-Cola,Qualuob,Qualuob,TELES-Heliopolis,1,30.07338659,31.34379278,Cairo,
خفيف,EG,احمد قمحه,,خفيف,,,Direct Sales,Coca-Cola,Qualuob,Qualuob,TELES-East Cairo 2,1,30.06006494,31.4184293,Cairo,
العميري,EG,الاسكندر الاكبر,,العميري,,,Direct Sales,Coca-Cola,Qualuob,Qualuob,TELES-Sahel 1,1,30.933589,29.474735,Cairo,
GLEEM COURT,EG,الجيش,,GLEEM COURT,,,Direct Sales,Coca-Cola,Qualuob,Qualuob,TELES-Amria,1,31.20080381,29.89839037,Cairo,
بندق سندوتشات,EG,السوق التجاري,,بندق سندوتشات,,,Direct Sales,Coca-Cola,Qualuob,Qualuob,TELES-Sahel 2,1,31.19994833,27.55569757,Cairo,
اولاد النجرو,EG,النخيل,,اولاد النجرو,,,Direct Sales,Coca-Cola,Qualuob,Qualuob,TELES-Hurghada,1,26.98848755,33.89955902,Cairo,
EM,EG,تابع للفندق,,EM,,,Direct Sales,Coca-Cola,Qualuob,Qualuob,TELES-Hurghada,1,27.089874,33.84534,Cairo,
مبكيه,EG,جرين تور ايس,,مبكيه,,,Direct Sales,Coca-Cola,Qualuob,Qualuob,TELES-Hurghada,1,27.158181,33.825873,Cairo,
بوب,EG,جوجو,,بوب,,,Direct Sales,Coca-Cola,Qualuob,Qualuob,TELES-Hurghada,1,26.98104837,33.87500688,Cairo,
الاصدقاء,EG,داخل سوق الموقف,,الاصدقاء,,,Direct Sales,Coca-Cola,Qualuob,Qualuob,TELES-Hurghada,1,26.98684842,33.89500288,Cairo,
مطعم مولانا,EG,ش توت عنخ امون خلف محطه القطار,,مطعم مولانا,,,Direct Sales,Coca-Cola,Qualuob,Qualuob,TELES-Hurghada,1,26.98809141,33.89559151,Cairo,
مقهي,EG,طالب خليل,,مقهي,,,Direct Sales,Coca-Cola,Qualuob,Qualuob,TELES-Hurghada,1,26.98623498,33.8941071,Cairo,
ابو ربيع,EG,عبد السلام عارف,,ابو ربيع,,,Direct Sales,Coca-Cola,Qualuob,Qualuob,TELES-Hurghada,1,26.97898641,33.86974002,Cairo,
دمشق القديمه,EG,عشرين جرين تاور,,دمشق القديمه,,,Direct Sales,Coca-Cola,Qualuob,Qualuob,TELES-Hurghada,1,26.9916566,33.8984553,Cairo,
شركه الاسكندريه للجمعيات الاستهلاكي,EG,عمر لطفي,,شركه الاسكندريه للجمعيات,,,Direct Sales,Coca-Cola,Qualuob,Qualuob,TELES-Hurghada,1,26.98924687,33.89443828,Cairo,
POP,EG,محرم بك,,POP,,,Direct Sales,Coca-Cola,Qualuob,Qualuob,TELES-Hurghada,1,25.60403,34.603195,Cairo,
اكل شوارع,EG,محمد فؤاد جلال,,اكل شوارع,,,Direct Sales,Coca-Cola,Qualuob,Qualuob,TELES-Hurghada,1,26.83293978,33.94296714,Cairo,
محمصه مكه,EG,وسط المساكن,,محمصه مكه,,,Direct Sales,Coca-Cola,Qualuob,Qualuob,TELES-Sharm ElSheikh,1,27.8634573,34.2947382,Cairo,
طع,EG,المشير احمد اسماعيل,,طع,,,Direct Sales,Coca-Cola,Qualuob,Qualuob,TELES-Sharm ElSheikh,1,27.981416,34.422445,Cairo,
MRKAMPIR,EG,داخل نادي سموحه,,MRKAMPIR,,,Direct Sales,Coca-Cola,Qualuob,Qualuob,TELES-Sharm ElSheikh,1,28.4803008,34.4903111,Cairo,
TIKKAسلسله مطاعم تكاا,EG,جرين بلازا,,TIKKAسلسله مطاعم تكاا,,,Direct Sales,Coca-Cola,Qualuob,Qualuob,TELES-Sharm ElSheikh,1,27.916153,34.326795,Cairo,
سلسله مطاعم جاد GAD,EG,المدارس,,سلسله مطاعم جاد GAD,,,Direct Sales,Coca-Cola,Qualuob,Qualuob,TELES-Sharm ElSheikh,1,27.853804,34.312645,Cairo,
BECI,EG,داخل سان ستيفانو,,BECI,,,Direct Sales,Coca-Cola,Qualuob,Qualuob,TELES-Sharm ElSheikh,1,27.88866924,34.286013,Cairo,
COURT FOOD,EG,داخل سان ستيفانو,,COURT FOOD,,,Direct Sales,Coca-Cola,Qualuob,Qualuob,TELES-Sharm ElSheikh,1,28.03099006,34.42380171,Cairo,
سوزي,EG,داخل سيتي سنتر,,سوزي,,,Indirect Sales,Coca-Cola,Qualuob,Qualuob,TELES-Sharm ElSheikh,1,28.38236989400010,33.85444534600000,Cairo,
NEWYORK FRIES,EG,داخل سيتي سنتر,,NEWYORK FRIES,,,Indirect Sales,Coca-Cola,Qualuob,Qualuob,TELES-Sharm ElSheikh,1,29.01655438900010,33.52891651600000,Cairo,
شباتي و كرك,EG,متفرع من الجيش,,شباتي و كرك,,,Indirect Sales,Coca-Cola,Qualuob,Qualuob,TELES-Sharm ElSheikh,1,27.9171112,34.327716,Cairo,
بقاله الجزيره,EG,اول شارع جمال الدين واصل بجوار مدر,,بقاله الجزيره,,,Indirect Sales,Coca-Cola,Qualuob,Qualuob,TELES-Sharm ElSheikh,1,28.0160802,34.41849638,Cairo,
بورجر هاوس,EG,مول سكان بلازا,,بورجر هاوس,,,Indirect Sales,Coca-Cola,Qualuob,Qualuob,DSP-العين السخنة,1,29.72087066,32.38255459,Cairo,
بيت العرب,EG,محمود ابو زيد,,بيت العرب,,,Indirect Sales,Coca-Cola,Qualuob,Qualuob,DSP-العين السخنة,1,29.72087066,32.38255459,Cairo,
بيت ورد,EG,مول بورتو كايرو,,بيت ورد,,,Indirect Sales,Coca-Cola,Qualuob,Qualuob,TELES-Central Cairo,1,30.046716,31.235557,Cairo,
